BahnhofsId;Bahnhofname;Position;Latitude;Longitude
SNode-1470482;Flensburg                                         ;54.773972323885 9.436112337536;54.773972323885;9.436112337536
SNode-1470515;Kiel Hbf                                          ;54.314873425916 10.131438506488;54.314873425916;10.131438506488
SNode-1470523;Kiel Hbf                                          ;54.314863789498 10.132014812370;54.314863789498;10.132014812370
SNode-1470545;Meimersdorf Ost                                   ;54.292480346787 10.134461650143;54.292480346787;10.134461650143
SNode-1470633;Lübeck Hbf                                        ;53.867448356436 10.669974143876;53.867448356436;10.669974143876
SNode-1470634;Lübeck Hbf                                        ;53.867866725224 10.669512813946;53.867866725224;10.669512813946
SNode-1470647;Lübeck-Travemünde Strand                          ;53.965025091333 10.876117784172;53.965025091333;10.876117784172
SNode-1470817;Klanxbüll                                         ;54.861824712243 8.676915589240;54.861824712243;8.676915589240
SNode-1470836;Hamburg-Altona                                    ;53.552561160842 9.934676157830;53.552561160842;9.934676157830
SNode-1470841;Kiel Hbf                                          ;54.314937867823 10.131924450102;54.314937867823;10.131924450102
SNode-1470875;Hamburg Diebsteich                                ;53.569006535957 9.934241720660;53.569006535957;9.934241720660
SNode-1470878;Thesdorf                                          ;53.644513317688 9.813720362866;53.644513317688;9.813720362866
SNode-1470924;Hamburg Dammtor (S-Bahn)                          ;53.560919223293 9.989741039006;53.560919223293;9.989741039006
SNode-1470981;Hamburg Süderelbbrücke                            ;53.479431982195 10.001268538844;53.479431982195;10.001268538844
SNode-1470984;Meckelfeld                                        ;53.421451364872 10.033468206012;53.421451364872;10.033468206012
SNode-1471002;Hamburg Königstraße                               ;53.547846228603 9.944054446924;53.547846228603;9.944054446924
SNode-1471014;Hamburg-Hammerbrook                               ;53.546442352888 10.023713636373;53.546442352888;10.023713636373
SNode-1471019;Hamburg-Neuwiedenthal                             ;53.473054297720 9.877477988296;53.473054297720;9.877477988296
SNode-1471024;Hamburg-Harburg (S-Bahn)                          ;53.456907857213 9.991829592298;53.456907857213;9.991829592298
SNode-1471028;Hamburg-Heimfeld                                  ;53.465449096701 9.963187845699;53.465449096701;9.963187845699
SNode-1471033;Hamburg-Harburg (S-Bahn)                          ;53.456746985053 9.991875260680;53.456746985053;9.991875260680
SNode-1471037;Hamburg-Heimfeld                                  ;53.465315061743 9.963149783430;53.465315061743;9.963149783430
SNode-1471071;Bremerhaven-Speckenbüttel                         ;53.591752523829 8.591240466035;53.591752523829;8.591240466035
SNode-1471129;Oldenburg (Oldb) Hbf                              ;53.144108338412 8.222689027628;53.144108338412;8.222689027628
SNode-1471175;Nordenham                                         ;53.483685077267 8.487468420250;53.483685077267;8.487468420250
SNode-1471196;Wilhelmshaven                                     ;53.518761741502 8.115716979482;53.518761741502;8.115716979482
SNode-1471205;Wangerooge                                        ;53.787774951479 7.899070991986;53.787774951479;7.899070991986
SNode-1471209;Wangerooge Saline                                 ;53.789188785554 7.877754677922;53.789188785554;7.877754677922
SNode-1471213;Wilhelmshaven Ölweiche                            ;53.596532546065 8.081901637416;53.596532546065;8.081901637416
SNode-1471230;Norden                                            ;53.586762877582 7.221086555854;53.586762877582;7.221086555854
SNode-1471255;Osnabrück Stahlwerkskurve                         ;52.273425788440 8.090326749434;52.273425788440;8.090326749434
SNode-1471263;Hannover Hbf                                      ;52.377424713269 9.742200913798;52.377424713269;9.742200913798
SNode-1471299;Hannover Hbf                                      ;52.376671797185 9.741244499127;52.376671797185;9.741244499127
SNode-1471303;Hannover Hbf                                      ;52.377095780702 9.741783212942;52.377095780702;9.741783212942
SNode-1471312;Hannover-Hainholz                                 ;52.397333806933 9.701467050095;52.397333806933;9.701467050095
SNode-1471334;Soltau (Han)                                      ;52.982886547462 9.831078462678;52.982886547462;9.831078462678
SNode-1471611;Göttingen                                         ;51.536670009006 9.926597360782;51.536670009006;9.926597360782
SNode-1471741;Northeim (Han)                                    ;51.703214928050 9.986916415651;51.703214928050;9.986916415651
SNode-1471788;Vlotho                                            ;52.172463040136 8.863974167635;52.172463040136;8.863974167635
SNode-1471800;Braunschweig Hbf                                  ;52.252031525300 10.540562009379;52.252031525300;10.540562009379
SNode-1471805;Braunschweig Hbf                                  ;52.252306080816 10.540104313301;52.252306080816;10.540104313301
SNode-1471815;Vienenburg                                        ;51.954910548706 10.561749890729;51.954910548706;10.561749890729
SNode-1471890;Salzgitter-Bad                                    ;52.049802784871 10.372328237058;52.049802784871;10.372328237058
SNode-1471894;Bad Gandersheim                                   ;51.867387973187 10.019973930936;51.867387973187;10.019973930936
SNode-1471917;Uelzen                                            ;52.970065826229 10.552908107592;52.970065826229;10.552908107592
SNode-1471956;Münster (Westf) Hbf                               ;51.956504164482 7.636082368325;51.956504164482;7.636082368325
SNode-1471978;Gronau (Westf)                                    ;52.215177632680 7.022452850513;52.215177632680;7.022452850513
SNode-1472085;Dortmund Süd                                      ;51.508798533686 7.474639267963;51.508798533686;7.474639267963
SNode-1472121;Witten Hbf                                        ;51.435342980281 7.329224960383;51.435342980281;7.329224960383
SNode-1472138;Bochum West                                       ;51.481384311770 7.211306813049;51.481384311770;7.211306813049
SNode-1472155;Bochum Hbf                                        ;51.478505582724 7.223215532697;51.478505582724;7.223215532697
SNode-1472164;Bochum Hbf                                        ;51.478642323131 7.223055503891;51.478642323131;7.223055503891
SNode-1472173;Essen Hbf                                         ;51.451348592550 7.013871457797;51.451348592550;7.013871457797
SNode-1472180;Essen Hbf                                         ;51.451576553430 7.013821810426;51.451576553430;7.013821810426
SNode-1472185;Essen-Werden                                      ;51.386912545392 6.997833140909;51.386912545392;6.997833140909
SNode-1472217;Essen-Kray Nord                                   ;51.469486907581 7.080676625316;51.469486907581;7.080676625316
SNode-1472220;Gelsenkirchen-Rotthausen                          ;51.492690857168 7.089059713359;51.492690857168;7.089059713359
SNode-1472239;Mülheim (Ruhr)-Styrum                             ;51.449024066622 6.852483117438;51.449024066622;6.852483117438
SNode-1472247;Bochum Hbf                                        ;51.478283116109 7.223490860213;51.478283116109;7.223490860213
SNode-1472387;Dortmund-Somborn                                  ;51.495893472449 7.351230785601;51.495893472449;7.351230785601
SNode-1472393;Recklinghausen Süd                                ;51.562125102034 7.195690756408;51.562125102034;7.195690756408
SNode-1472424;Gelsenkirchen Hugo                                ;51.540153670734 7.067159216468;51.540153670734;7.067159216468
SNode-1472464;Essen-Vogelheim                                   ;51.484795506334 6.984108629570;51.484795506334;6.984108629570
SNode-1472486;Mecklenbeck                                       ;51.923206693844 7.572587495089;51.923206693844;7.572587495089
SNode-1472499;Oberhausen Hbf                                    ;51.474928964039 6.851489961335;51.474928964039;6.851489961335
SNode-1472552;Mülheim (Ruhr)-Styrum                             ;51.449310057219 6.852699320449;51.449310057219;6.852699320449
SNode-1472556;Mülheim (Ruhr)-Styrum                             ;51.449057492728 6.852526286528;51.449057492728;6.852526286528
SNode-1472594;Duisburg-Hochfeld Süd Vorbahnhof                  ;51.412245721489 6.776348647000;51.412245721489;6.776348647000
SNode-1472595;Mülheim (Ruhr)-Styrum                             ;51.449342543714 6.852740279355;51.449342543714;6.852740279355
SNode-1472602;Duisburg-Ruhrort Hafen                            ;51.460260803201 6.794425565157;51.460260803201;6.794425565157
SNode-1472708;Rheinkamp                                         ;51.503465788412 6.624594074223;51.503465788412;6.624594074223
SNode-1472715;Millingen                                         ;51.559946234686 6.556832564077;51.559946234686;6.556832564077
SNode-1472761;Bochum-Dahlhausen                                 ;51.426350920417 7.141397200592;51.426350920417;7.141397200592
SNode-1472782;Düsseldorf Hbf                                    ;51.219493760241 6.794380720497;51.219493760241;6.794380720497
SNode-1472785;Düsseldorf Hbf                                    ;51.219687254377 6.794009330680;51.219687254377;6.794009330680
SNode-1472788;Düsseldorf-Derendorf                              ;51.246875039535 6.794378257464;51.246875039535;6.794378257464
SNode-1472793;Düsseldorf Flughafen Terminal                     ;51.277661100485 6.765984259119;51.277661100485;6.765984259119
SNode-1472808;Düsseldorf-Eller                                  ;51.202661794634 6.851973576335;51.202661794634;6.851973576335
SNode-1472822;Düsseldorf Hbf                                    ;51.220049893015 6.793258023614;51.220049893015;6.793258023614
SNode-1472838;Gevelsberg West                                   ;51.317116018242 7.312796037844;51.317116018242;7.312796037844
SNode-1472853;Krefeld-Oppum                                     ;51.329799903645 6.611442829082;51.329799903645;6.611442829082
SNode-1472864;Mülheim (Ruhr)-Speldorf                           ;51.426630930409 6.850532801371;51.426630930409;6.850532801371
SNode-1472938;Wuppertal-Unterbarmen                             ;51.258809725183 7.171169525759;51.258809725183;7.171169525759
SNode-1472963;Lindern Abzw                                      ;50.999227463215 6.216146050666;50.999227463215;6.216146050666
SNode-1473093;Bedburg (Erft)                                    ;50.987475225236 6.572706446565;50.987475225236;6.572706446565
SNode-1473113;Zülpich                                           ;50.698094898594 6.662468074422;50.698094898594;6.662468074422
SNode-1473115;Köln Hbf                                          ;50.942905046383 6.959362192112;50.942905046383;6.959362192112
SNode-1473144;Köln Hbf                                          ;50.942700575722 6.958882884427;50.942700575722;6.958882884427
SNode-1473223;Köln Hbf                                          ;50.943034128070 6.959679545567;50.943034128070;6.959679545567
SNode-1473271;Köln Hbf                                          ;50.942790875192 6.959100642653;50.942790875192;6.959100642653
SNode-1473282;Köln Messe/Deutz                                  ;50.940877727653 6.974527616103;50.940877727653;6.974527616103
SNode-1473334;Köln Hbf                                          ;50.942583418384 6.958651162663;50.942583418384;6.958651162663
SNode-1473366;Usch-Zendscheid                                   ;50.102757047504 6.602833374943;50.102757047504;6.602833374943
SNode-1473543;Overath                                           ;50.932633406510 7.288854435668;50.932633406510;7.288854435668
SNode-1473557;Köln Messe/Deutz                                  ;50.940900471611 6.974532613383;50.940900471611;6.974532613383
SNode-1473558;Köln Messe/Deutz                                  ;50.941021292317 6.974567854200;50.941021292317;6.974567854200
SNode-1473599;Köln Messe/Deutz                                  ;50.941225640071 6.974623877732;50.941225640071;6.974623877732
SNode-1473630;Köln-Kalk Nord                                    ;50.939681488937 7.015605276359;50.939681488937;7.015605276359
SNode-1473684;Hilden                                            ;51.166918268241 6.921892874167;51.166918268241;6.921892874167
SNode-1473690;Leverkusen Werkstätte                             ;51.048219145895 7.014107115857;51.048219145895;7.014107115857
SNode-1473758;Remscheid Hbf                                     ;51.177228495244 7.199581102854;51.177228495244;7.199581102854
SNode-1473780;Gruiten                                           ;51.214517393258 7.011208492194;51.214517393258;7.011208492194
SNode-1473839;Hagen-Vorhalle                                    ;51.388231542352 7.433621464886;51.388231542352;7.433621464886
SNode-1473861;Hagen-Oberhagen                                   ;51.351039565352 7.478835242745;51.351039565352;7.478835242745
SNode-1473891;Gummersbach                                       ;51.023346817244 7.566407128246;51.023346817244;7.566407128246
SNode-1473908;Hagen Hbf                                         ;51.362777062067 7.460032700779;51.362777062067;7.460032700779
SNode-1473962;Menden (Sauerland)                                ;51.435252594161 7.792265253433;51.435252594161;7.792265253433
SNode-1473966;Fröndenberg                                       ;51.471213762205 7.761829742480;51.471213762205;7.761829742480
SNode-1473994;Finnentrop                                        ;51.173301063616 7.964544610125;51.173301063616;7.964544610125
SNode-1474033;Bad Laasphe                                       ;50.929278151478 8.420490753036;50.929278151478;8.420490753036
SNode-1474074;Bönen Autobahn                                    ;51.614128205686 7.768255262374;51.614128205686;7.768255262374
SNode-1474096;Soest                                             ;51.578478811963 8.104626609603;51.578478811963;8.104626609603
SNode-1474102;Hamm (Westf) Pbf                                  ;51.678133530758 7.808013143098;51.678133530758;7.808013143098
SNode-1474117;Salzbergen                                        ;52.323025225541 7.350833810524;52.323025225541;7.350833810524
SNode-1474160;Dissen-Bad Rothenfelde                            ;52.111959802506 8.185066774542;52.111959802506;8.185066774542
SNode-1474171;Brilon Egger                                      ;51.412721481834 8.606905709050;51.412721481834;8.606905709050
SNode-1474188;Altenbeken (Tunnel) Esig F/Asig X                 ;51.770064738384 8.958551643667;51.770064738384;8.958551643667
SNode-1474189;Volkmarsen                                        ;51.408067727192 9.117514162375;51.408067727192;9.117514162375
SNode-1474220;Wetter (Hess-Nass)                                ;50.903748778913 8.729208797840;50.903748778913;8.729208797840
SNode-1474325;Löhne (Westf) Pbf                                 ;52.196240423317 8.713599132980;52.196240423317;8.713599132980
SNode-1474336;Löhne (Westf) Pbf                                 ;52.196677870652 8.713379321096;52.196677870652;8.713379321096
SNode-1474366;Mayen Ost                                         ;50.329672977378 7.238877679021;50.329672977378;7.238877679021
SNode-1474377;Koblenz Hbf                                       ;50.350757805801 7.588203572624;50.350757805801;7.588203572624
SNode-1474439;Neuwied                                           ;50.431114470876 7.474153546752;50.431114470876;7.474153546752
SNode-1474462;Boppard-Buchholz                                  ;50.210772574507 7.554655903086;50.210772574507;7.554655903086
SNode-1474484;Karthaus Nordwest                                 ;49.706404175357 6.566872770779;49.706404175357;6.566872770779
SNode-1474486;Karthaus Nordost                                  ;49.709355568117 6.570622658134;49.709355568117;6.570622658134
SNode-1474487;Karthaus Moselbrücke                              ;49.704697083953 6.574663353131;49.704697083953;6.574663353131
SNode-1474522;Altenglan                                         ;49.547981310097 7.462200725210;49.547981310097;7.462200725210
SNode-1474533;Dillingen (Saar)                                  ;49.352490368888 6.722204327077;49.352490368888;6.722204327077
SNode-1474546;Saarbrücken-Burbach                               ;49.242076510584 6.956607052113;49.242076510584;6.956607052113
SNode-1474583;Saarbrücken Hbf                                   ;49.241381290602 6.991044684799;49.241381290602;6.991044684799
SNode-1474584;Saarbrücken Hbf                                   ;49.241249850257 6.991016033309;49.241249850257;6.991016033309
SNode-1474587;Saarbrücken Hbf                                   ;49.241575867821 6.991083915506;49.241575867821;6.991083915506
SNode-1474590;Saarbrücken Hbf                                   ;49.241002668543 6.990966816419;49.241002668543;6.990966816419
SNode-1474657;Illingen (Saar)                                   ;49.376296508230 7.048897749781;49.376296508230;7.048897749781
SNode-1474662;Frankfurt (Main) Süd                              ;50.099319641638 8.686164824473;50.099319641638;8.686164824473
SNode-1474667;Lebach                                            ;49.408283478434 6.908437322413;49.408283478434;6.908437322413
SNode-1474674;Homburg (Saar) Hbf                                ;49.328069880134 7.337028045083;49.328069880134;7.337028045083
SNode-1474687;Wörth (Rhein)                                     ;49.045732446247 8.273163965053;49.045732446247;8.273163965053
SNode-1474748;Lohnweiler                                        ;49.635797418021 7.599674559599;49.635797418021;7.599674559599
SNode-1474863;Grünstadt                                         ;49.564680049185 8.167676300507;49.564680049185;8.167676300507
SNode-1474967;Wiesbaden Hbf                                     ;50.070604699640 8.243451712800;50.070604699640;8.243451712800
SNode-1474969;Wiesbaden Hbf                                     ;50.070744605778 8.244045750034;50.070744605778;8.244045750034
SNode-1474977;Wiesbaden-Biebrich                                ;50.048801866720 8.236380142390;50.048801866720;8.236380142390
SNode-1475006;Filsen                                            ;50.238739727087 7.583449188795;50.238739727087;7.583449188795
SNode-1475081;Mainz Hbf                                         ;50.001274444349 8.258537370061;50.001274444349;8.258537370061
SNode-1475091;Frankfurt (Main) Hbf                              ;50.107225290460 8.662607432464;50.107225290460;8.662607432464
SNode-1475132;Mainz-Bischofsheim                                ;49.992854020675 8.357991136368;49.992854020675;8.357991136368
SNode-1475138;Mainz Hbf                                         ;50.001342515603 8.258735473322;50.001342515603;8.258735473322
SNode-1475143;Alzey                                             ;49.750189870883 8.109784429010;49.750189870883;8.109784429010
SNode-1475240;Worms Hbf                                         ;49.635332341048 8.356944997770;49.635332341048;8.356944997770
SNode-1475297;Frankfurt (Main) Hbf                              ;50.106566250502 8.663230636264;50.106566250502;8.663230636264
SNode-1475339;Burghaun (Kr Hünfeld)                             ;50.700570038458 9.727979880084;50.700570038458;9.727979880084
SNode-1475390;Flieden                                           ;50.421078209302 9.576857539667;50.421078209302;9.576857539667
SNode-1475402;Flieden                                           ;50.421345244061 9.576474530772;50.421345244061;9.576474530772
SNode-1475410;Frankfurt (Main) Hbf                              ;50.106716526632 8.663087419571;50.106716526632;8.663087419571
SNode-1475461;Frankfurt (Main) Hbf (tief)                       ;50.107339722416 8.662753869498;50.107339722416;8.662753869498
SNode-1475522;Frankfurt (Main) Hbf                              ;50.107343122845 8.662438381426;50.107343122845;8.662438381426
SNode-1475579;Dreieich-Buchschlag                               ;50.021604236894 8.661155892977;50.021604236894;8.661155892977
SNode-1475599;Frankfurt (Main) Süd                              ;50.099115526460 8.686391876704;50.099115526460;8.686391876704
SNode-1475626;Rödermark-Ober Roden                              ;49.973198782233 8.829093795665;49.973198782233;8.829093795665
SNode-1475705;Frankfurt (Main) Süd                              ;50.099511067964 8.685967019564;50.099511067964;8.685967019564
SNode-1475824;Niederlahnstein                                   ;50.316432927184 7.599603771205;50.316432927184;7.599603771205
SNode-1475865;Friedberg (Hess)                                  ;50.332829875142 8.761274619250;50.332829875142;8.761274619250
SNode-1475917;Bebra Lämmerberg Abzw                             ;50.952027765563 9.798359012554;50.952027765563;9.798359012554
SNode-1475923;Blankenheim                                       ;50.935396004461 9.778057692528;50.935396004461;9.778057692528
SNode-1475986;Kassel Hbf                                        ;51.318313195459 9.489876027307;51.318313195459;9.489876027307
SNode-1476048;Frankfurt (Main) Hbf                              ;50.106804866753 8.663010702850;50.106804866753;8.663010702850
SNode-1476058;Volkmarsen                                        ;51.408067367394 9.117514398533;51.408067367394;9.117514398533
SNode-1476067;Altenhasungen                                     ;51.343661192712 9.225458466098;51.343661192712;9.225458466098
SNode-1476143;Karlsruhe Hbf                                     ;48.993517837039 8.401960086457;48.993517837039;8.401960086457
SNode-1476245;Mannheim Hbf                                      ;49.479305581943 8.469405202586;49.479305581943;8.469405202586
SNode-1476249;Mannheim Hbf                                      ;49.479438940296 8.469582801688;49.479438940296;8.469582801688
SNode-1476285;Mannheim Hbf                                      ;49.479337536059 8.469451409901;49.479337536059;8.469451409901
SNode-1476370;Mannheim Hbf                                      ;49.479207407735 8.469272296967;49.479207407735;8.469272296967
SNode-1476448;Erbach (Odenw)                                    ;49.656763572300 8.989770639834;49.656763572300;8.989770639834
SNode-1476529;Würzburg-Heidingsfeld West                        ;49.762687000386 9.942254298281;49.762687000386;9.942254298281
SNode-1476534;Bruchsal                                          ;49.124634627597 8.589484274734;49.124634627597;8.589484274734
SNode-1476587;Karlsruhe Gbf                                     ;48.996674804878 8.424765482194;48.996674804878;8.424765482194
SNode-1476607;Donaueschingen                                    ;47.947911349569 8.498804298317;47.947911349569;8.498804298317
SNode-1476660;Appenweier Kurve                                  ;48.543191203309 7.965415100453;48.543191203309;7.965415100453
SNode-1476668;Appenweier-Muhrhaag                               ;48.535988596467 7.971489423648;48.535988596467;7.971489423648
SNode-1476690;Schliengen Abzweig Rtb/NBS                        ;47.766660618640 7.572181537394;47.766660618640;7.572181537394
SNode-1476948;Plochingen                                        ;48.712805469883 9.410989466302;48.712805469883;9.410989466302
SNode-1476983;Horb                                              ;48.441424927849 8.689200406024;48.441424927849;8.689200406024
SNode-1477110;Stuttgart Hbf                                     ;48.784491773332 9.181051345438;48.784491773332;9.181051345438
SNode-1477133;Stuttgart Hbf                                     ;48.783661121787 9.182844159466;48.783661121787;9.182844159466
SNode-1477137;Stuttgart Hbf                                     ;48.783937689057 9.182145470956;48.783937689057;9.182145470956
SNode-1477281;Stuttgart Hbf                                     ;48.784032934502 9.181912808606;48.784032934502;9.181912808606
SNode-1477295;Stuttgart Hbf                                     ;48.783753221773 9.182611039348;48.783753221773;9.182611039348
SNode-1477309;Stuttgart Hbf                                     ;48.784284566366 9.181283159292;48.784284566366;9.181283159292
SNode-1477345;Weil der Stadt                                    ;48.754830430394 8.872110175979;48.754830430394;8.872110175979
SNode-1477366;Stuttgart-Zazenhausen                             ;48.844856433998 9.182439828632;48.844856433998;9.182439828632
SNode-1477413;Stuttgart Hbf                                     ;48.784181906808 9.181541836652;48.784181906808;9.181541836652
SNode-1477472;Hochdorf (b Horb)                                 ;48.482182327118 8.723148777998;48.482182327118;8.723148777998
SNode-1477543;Waiblingen                                        ;48.826500074756 9.300314737260;48.826500074756;9.300314737260
SNode-1477551;Backnang                                          ;48.942627873557 9.426036546870;48.942627873557;9.426036546870
SNode-1477565;Marbach (Neckar)                                  ;48.943613009233 9.264330539750;48.943613009233;9.264330539750
SNode-1477585;Crailsheim                                        ;49.138489661467 10.063952373455;49.138489661467;10.063952373455
SNode-1477611;Buchloe                                           ;48.033709496515 10.716307663790;48.033709496515;10.716307663790
SNode-1477626;Crailsheim                                        ;49.138498079041 10.064707318733;49.138498079041;10.064707318733
SNode-1477643;Neuenmarkt-Wirsberg Süd                           ;50.084416086671 11.590527996320;50.084416086671;11.590527996320
SNode-1477691;Marxgrün                                          ;50.354978955934 11.686570283525;50.354978955934;11.686570283525
SNode-1477711;Weiden (Oberpf)                                   ;49.670462068238 12.153979928665;49.670462068238;12.153979928665
SNode-1477749;Pressath                                          ;49.764098279386 11.939088202655;49.764098279386;11.939088202655
SNode-1477796;Bamberg                                           ;49.900821461486 10.899536273373;49.900821461486;10.899536273373
SNode-1477847;Schweinfurt Stadt                                 ;50.046295670296 10.242979369582;50.046295670296;10.242979369582
SNode-1477881;Neustadt (b Coburg)                               ;50.332785576735 11.121574651239;50.332785576735;11.121574651239
SNode-1477893;Würzburg Hbf                                      ;49.801843559853 9.935817980062;49.801843559853;9.935817980062
SNode-1477947;Diebach                                           ;50.128712678760 9.838415554912;50.128712678760;9.838415554912
SNode-1477955;Gemünden Zollberg                                 ;50.062408305893 9.680886350775;50.062408305893;9.680886350775
SNode-1477960;Burgsinn Bbf                                      ;50.123591853301 9.660491779873;50.123591853301;9.660491779873
SNode-1478055;Schweinsdorf                                      ;49.400801587559 10.227195871319;49.400801587559;10.227195871319
SNode-1478063;Augsburg Hbf                                      ;48.365280426791 10.885672201914;48.365280426791;10.885672201914
SNode-1478070;Donauwörth                                        ;48.714007670800 10.771465532388;48.714007670800;10.771465532388
SNode-1478081;Augsburg Hbf                                      ;48.365410767547 10.886016995117;48.365410767547;10.886016995117
SNode-1478119;Meitingen Stahlwerk                               ;48.509402994082 10.847997607344;48.509402994082;10.847997607344
SNode-1478134;Treuchtlingen                                     ;48.961128560971 10.908203468676;48.961128560971;10.908203468676
SNode-1478153;Treuchtlingen                                     ;48.961157399477 10.907993361824;48.961157399477;10.907993361824
SNode-1478199;Gunzenhausen                                      ;49.120274943880 10.754871379931;49.120274943880;10.754871379931
SNode-1478203;Langlau                                           ;49.118749631088 10.859300693904;49.118749631088;10.859300693904
SNode-1478221;Ellzee                                            ;48.342302527364 10.338276181330;48.342302527364;10.338276181330
SNode-1478235;Krumbach (Schwab) Schule                          ;48.235652896403 10.360719081646;48.235652896403;10.360719081646
SNode-1478258;Hausen (Schwab)                                   ;48.100805663334 10.482863984184;48.100805663334;10.482863984184
SNode-1478262;Buchloe                                           ;48.033758037001 10.716165269962;48.033758037001;10.716165269962
SNode-1478305;Kempten (Allgäu) Hbf                              ;47.711812552680 10.317679297636;47.711812552680;10.317679297636
SNode-1478308;Martinszell (Allgäu)                              ;47.629545987134 10.273913412268;47.629545987134;10.273913412268
SNode-1478344;Lindau Hbf                                        ;47.544252082012 9.680540673999;47.544252082012;9.680540673999
SNode-1478377;Geltendorf                                        ;48.105894644843 11.038057022718;48.105894644843;11.038057022718
SNode-1478384;Riederau                                          ;47.982583140664 11.097157189907;47.982583140664;11.097157189907
SNode-1478396;Weichering                                        ;48.720643295330 11.330424012005;48.720643295330;11.330424012005
SNode-1478450;Memmingen                                         ;47.985856017711 10.186871486246;47.985856017711;10.186871486246
SNode-1478500;Lindau Hbf                                        ;47.544363166471 9.681041625119;47.544363166471;9.681041625119
SNode-1478506;München Hbf                                       ;48.140865601207 11.558829302583;48.140865601207;11.558829302583
SNode-1478509;Biessenhofen Abzweig                              ;47.834255704614 10.642519698837;47.834255704614;10.642519698837
SNode-1478510;Biessenhofen                                      ;47.829909453729 10.640557331738;47.829909453729;10.640557331738
SNode-1478514;Marktoberdorf                                     ;47.779049477851 10.614216240615;47.779049477851;10.614216240615
SNode-1478535;Murnau                                            ;47.681891968772 11.193005304600;47.681891968772;11.193005304600
SNode-1478562;Tutzing                                           ;47.906790434291 11.272726473810;47.906790434291;11.272726473810
SNode-1478570;Bichl                                             ;47.723844406448 11.408787072781;47.723844406448;11.408787072781
SNode-1478600;Landshut (Bay) Hbf                                ;48.547544848350 12.135899812908;48.547544848350;12.135899812908
SNode-1478629;München Hbf                                       ;48.140551441216 11.558771114658;48.140551441216;11.558771114658
SNode-1478688;München Hbf                                       ;48.140129405444 11.558689828181;48.140129405444;11.558689828181
SNode-1478729;Garmisch-Partenkirchen                            ;47.491250058116 11.097135765962;47.491250058116;11.097135765962
SNode-1478753;München-Laim Rbf                                  ;48.145141900944 11.501958540981;48.145141900944;11.501958540981
SNode-1478803;Icking                                            ;47.952954401351 11.436489298649;47.952954401351;11.436489298649
SNode-1478811;München Hbf                                       ;48.139944522490 11.558663120875;48.139944522490;11.558663120875
SNode-1478860;München-Pasing                                    ;48.149709031214 11.461400440067;48.149709031214;11.461400440067
SNode-1478866;München-Laim Rbf                                  ;48.145022869380 11.501930914403;48.145022869380;11.501930914403
SNode-1478867;München-Laim Rbf                                  ;48.144864872830 11.501871020275;48.144864872830;11.501871020275
SNode-1478879;München-Pasing Ost                                ;48.146405710764 11.482645013168;48.146405710764;11.482645013168
SNode-1478892;München Hbf tief                                  ;48.141545933901 11.559186911599;48.141545933901;11.559186911599
SNode-1478926;Germering-Unterpfaffenhofen                       ;48.128857174426 11.364068560462;48.128857174426;11.364068560462
SNode-1478951;München-Pasing                                    ;48.150119657012 11.461706551311;48.150119657012;11.461706551311
SNode-1478953;München-Pasing                                    ;48.149887236690 11.461508851941;48.149887236690;11.461508851941
SNode-1478965;Dachau Bahnhof                                    ;48.254719547448 11.444211715202;48.254719547448;11.444211715202
SNode-1478966;Dachau Bahnhof                                    ;48.254706257970 11.444087998507;48.254706257970;11.444087998507
SNode-1478982;München Ost Frankenwaldstraße                     ;48.101638163073 11.600780113420;48.101638163073;11.600780113420
SNode-1478996;München Ost Pbf                                   ;48.127307022924 11.604922670630;48.127307022924;11.604922670630
SNode-1479001;München Ost Pbf                                   ;48.127641212808 11.604735356464;48.127641212808;11.604735356464
SNode-1479017;München-Trudering                                 ;48.126061202649 11.663075921929;48.126061202649;11.663075921929
SNode-1479020;Grafing Bahnhof                                   ;48.043460230353 11.940251765162;48.043460230353;11.940251765162
SNode-1479033;München Flughafen West                            ;48.350609556389 11.744915817639;48.350609556389;11.744915817639
SNode-1479040;München-Johanneskirchen                           ;48.168235472622 11.645819875672;48.168235472622;11.645819875672
SNode-1479057;München Nord Rbf Forstweg                         ;48.203928121160 11.469436546393;48.203928121160;11.469436546393
SNode-1479078;Markt Schwaben                                    ;48.193127897167 11.861572706949;48.193127897167;11.861572706949
SNode-1479081;Thann-Matzbach                                    ;48.266509243453 12.047667889961;48.266509243453;12.047667889961
SNode-1479114;Markt Schwaben                                    ;48.193194100739 11.861442804813;48.193194100739;11.861442804813
SNode-1479154;Miesbach                                          ;47.790466870144 11.830669487276;47.790466870144;11.830669487276
SNode-1479169;Holzkirchen                                       ;47.884512113184 11.697469952283;47.884512113184;11.697469952283
SNode-1479174;Westerham                                         ;47.903876046500 11.828475680763;47.903876046500;11.828475680763
SNode-1479183;Mallersdorf                                       ;48.768190863237 12.257155183458;48.768190863237;12.257155183458
SNode-1479205;Landshut (Bay) Hbf                                ;48.547383046210 12.135932040795;48.547383046210;12.135932040795
SNode-1479207;Altheim (Niederbay)                               ;48.584014158426 12.197896865821;48.584014158426;12.197896865821
SNode-1479215;Plattling                                         ;48.779674191003 12.863949592140;48.779674191003;12.863949592140
SNode-1479237;Zwiesel (Bay)                                     ;49.020988781812 13.226408192691;49.020988781812;13.226408192691
SNode-1479245;Rosenheim                                         ;47.850148575689 12.119361945904;47.850148575689;12.119361945904
SNode-1479309;Rosenheim                                         ;47.849993774925 12.119242208387;47.849993774925;12.119242208387
SNode-1479310;Rosenheim                                         ;47.850116024631 12.119328357379;47.850116024631;12.119328357379
SNode-1479334;Umrathshausen Bahnhof                             ;47.818774234750 12.320632339600;47.818774234750;12.320632339600
SNode-1479342;Rosenheim Ost                                     ;47.847808153370 12.138618735304;47.847808153370;12.138618735304
SNode-1479384;Traunstein                                        ;47.869803801458 12.638636663926;47.869803801458;12.638636663926
SNode-1479438;Traunstein                                        ;47.869706436670 12.638895375240;47.869706436670;12.638895375240
SNode-1479445;Siegsdorf                                         ;47.822368867855 12.645846666141;47.822368867855;12.645846666141
SNode-1479451;Bad Reichenhall                                   ;47.731039454755 12.881696632223;47.731039454755;12.881696632223
SNode-1479553;Ittling                                           ;48.884920523272 12.638116588913;48.884920523272;12.638116588913
SNode-1479569;Zwiesel (Bay)                                     ;49.020962310137 13.226494617779;49.020962310137;13.226494617779
SNode-1479577;Klingenbrunn                                      ;48.943527931046 13.337103697233;48.943527931046;13.337103697233
SNode-1479590;Passau Hbf                                        ;48.573728913057 13.450767050969;48.573728913057;13.450767050969
SNode-1479670;Regensburg Hbf                                    ;49.011600442850 12.099664232749;49.011600442850;12.099664232749
SNode-1479751;Maxhütte-Haidhof                                  ;49.198166424769 12.107327251656;49.198166424769;12.107327251656
SNode-1479772;Nürnberg Hbf                                      ;49.445264993834 11.082351950108;49.445264993834;11.082351950108
SNode-1479782;Fürth Alte Veste                                  ;49.454305083612 10.972377767276;49.454305083612;10.972377767276
SNode-1479788;Nürnberg Hbf                                      ;49.444996266630 11.082487643523;49.444996266630;11.082487643523
SNode-1479814;Schnabelwaid                                      ;49.810458136031 11.595653790749;49.810458136031;11.595653790749
SNode-1479874;Sulzbach-Rosenberg                                ;49.499483737670 11.739265166831;49.499483737670;11.739265166831
SNode-1479883;Nürnberg Hbf                                      ;49.445682075660 11.082138022947;49.445682075660;11.082138022947
SNode-1479884;Nürnberg Hbf                                      ;49.445768273178 11.082095605188;49.445768273178;11.082095605188
SNode-1479912;Fürth Westvorstadt                                ;49.469113190021 10.971546342582;49.469113190021;10.971546342582
SNode-1479919;Fürth-Dambach                                     ;49.460377505465 10.970306871079;49.460377505465;10.970306871079
SNode-1479929;Markt Erlbach                                     ;49.492806380700 10.658225680254;49.492806380700;10.658225680254
SNode-1479977;Nürnberg Rbf Minervabrücke                        ;49.420921220158 11.064308481596;49.420921220158;11.064308481596
SNode-1480008;Fürth (Bay) Hbf                                   ;49.469588948121 10.989841877511;49.469588948121;10.989841877511
SNode-1480107;Berlin Ostbahnhof S-Bahn                          ;52.510604025335 13.435098115319;52.510604025335;13.435098115319
SNode-1480109;Berlin Ostbahnhof S-Bahn                          ;52.510846064906 13.435347092927;52.510846064906;13.435347092927
SNode-1480199;Berlin Schönhauser Allee                          ;52.549446007688 13.403788508637;52.549446007688;13.403788508637
SNode-1480201;Berlin Westhafen (S-Bahn)                         ;52.536211421001 13.344212221003;52.536211421001;13.344212221003
SNode-1480334;Berlin-Schöneberg (Vorortbahn)                    ;52.480907126457 13.353961481527;52.480907126457;13.353961481527
SNode-1480410;Halle (Saale) Hbf                                 ;51.476913824875 11.986492623096;51.476913824875;11.986492623096
SNode-1480418;Großbeeren Süd                                    ;52.347113451083 13.283158717454;52.347113451083;13.283158717454
SNode-1480422;Potsdam Wissenschaftspark Golm                    ;52.406785045194 12.970994023037;52.406785045194;12.970994023037
SNode-1480434;Biesdorfer Kreuz Nord                             ;52.524624090793 13.537266700539;52.524624090793;13.537266700539
SNode-1480526;Berlin Bornholmer Straße Bft                      ;52.555600820751 13.398251590070;52.555600820751;13.398251590070
SNode-1480528;Berlin Bornholmer Straße Bft                      ;52.555671588811 13.398010406229;52.555671588811;13.398010406229
SNode-1480617;Rathenow                                          ;52.599742060403 12.354904082621;52.599742060403;12.354904082621
SNode-1480628;Oebisfelde                                        ;52.439466549553 10.984893218210;52.439466549553;10.984893218210
SNode-1480638;Berlin Ostbahnhof                                 ;52.510232666501 13.434673787390;52.510232666501;13.434673787390
SNode-1480651;Berlin Ostbahnhof                                 ;52.510572528259 13.435057855911;52.510572528259;13.435057855911
SNode-1480787;Mahlow                                            ;52.360132687078 13.408110744521;52.360132687078;13.408110744521
SNode-1480866;Berlin-Schöneweide Sad                            ;52.434986504581 13.540600750435;52.434986504581;13.540600750435
SNode-1480870;Berlin-Schöneweide Sad                            ;52.435008926473 13.540931988044;52.435008926473;13.540931988044
SNode-1480946;Werbig oben                                       ;52.571380457780 14.404798942955;52.571380457780;14.404798942955
SNode-1480947;Werbig (Bahnsteig oben)                           ;52.564963866458 14.404857446505;52.564963866458;14.404857446505
SNode-1480983;Berlin Ostkreuz Nord                              ;52.504678785391 13.470483300293;52.504678785391;13.470483300293
SNode-1481044;Elsterwerda                                       ;51.460065857242 13.516425325176;51.460065857242;13.516425325176
SNode-1481068;Hosena                                            ;51.454563336269 14.016243476692;51.454563336269;14.016243476692
SNode-1481085;Cottbus Cbn                                       ;51.751965315711 14.281533304820;51.751965315711;14.281533304820
SNode-1481088;Cottbus Cfw                                       ;51.748809529832 14.279372922778;51.748809529832;14.279372922778
SNode-1481226;Arnsdorf Nord                                     ;51.101682291600 13.972510639778;51.101682291600;13.972510639778
SNode-1481283;Großenhain Cottb Bf                               ;51.291735076362 13.523989189155;51.291735076362;13.523989189155
SNode-1481373;Falkenau (Sachs) Süd                              ;50.849296975897 13.109613095957;50.849296975897;13.109613095957
SNode-1481392;Freital Ost                                       ;51.017861103582 13.676757282238;51.017861103582;13.676757282238
SNode-1481495;Gera-Tinz                                         ;50.900943427409 12.065141509060;50.900943427409;12.065141509060
SNode-1481695;Breitungen (Werra)                                ;50.752937996649 10.322156742491;50.752937996649;10.322156742491
SNode-1481711;Grimmenthal                                       ;50.532697949971 10.450775078149;50.532697949971;10.450775078149
SNode-1481718;Lichtenfels                                       ;50.146565289493 11.059227843576;50.146565289493;11.059227843576
SNode-1481735;Mönchhagen                                        ;54.143525022597 12.225207562995;54.143525022597;12.225207562995
SNode-1481811;Wildeck-Hönebach                                  ;50.935354189361 9.943888671950;50.935354189361;9.943888671950
SNode-1481847;Halle (Saale) Hbf                                 ;51.476981485058 11.986660217296;51.476981485058;11.986660217296
SNode-1481989;Merseburg                                         ;51.356894960635 11.990678585804;51.356894960635;11.990678585804
SNode-1481994;Merseburg                                         ;51.356901029989 11.990374223769;51.356901029989;11.990374223769
SNode-1481995;Leipzig Nordkopf                                  ;51.365612587515 12.401392541505;51.365612587515;12.401392541505
SNode-1482011;Leipzig Hbf                                       ;51.344858346708 12.381552771358;51.344858346708;12.381552771358
SNode-1482041;Paditz                                            ;50.964923084152 12.461708721165;50.964923084152;12.461708721165
SNode-1482118;Leipzig Hbf                                       ;51.344463466382 12.382713578159;51.344463466382;12.382713578159
SNode-1482173;Markkleeberg                                      ;51.279117829607 12.372470492810;51.279117829607;12.372470492810
SNode-1482188;Leipzig Wahrener Viadukt                          ;51.374921969842 12.327926242872;51.374921969842;12.327926242872
SNode-1482251;Geithain                                          ;51.058458432729 12.696819482127;51.058458432729;12.696819482127
SNode-1482272;Borsdorf (Sachs)                                  ;51.345674301634 12.541115477599;51.345674301634;12.541115477599
SNode-1482274;Beucha                                            ;51.323620836867 12.573110327162;51.323620836867;12.573110327162
SNode-1482335;Leipzig Berliner Straße                           ;51.353729692398 12.390385676928;51.353729692398;12.390385676928
SNode-1482341;Eilsleben (b Magdeburg)                           ;52.150268130527 11.215198114340;52.150268130527;11.215198114340
SNode-1482345;Stendal                                           ;52.594666428423 11.854726568005;52.594666428423;11.854726568005
SNode-1482356;Magdeburg Hbf                                     ;52.130443323888 11.627398741378;52.130443323888;11.627398741378
SNode-1482502;Köthen                                            ;51.752274092603 11.989002132871;51.752274092603;11.989002132871
SNode-1482533;Bad Harzburg                                      ;51.888099304878 10.554734387741;51.888099304878;10.554734387741
SNode-1482579;Dalwitzhof                                        ;54.058256057676 12.145692424959;54.058256057676;12.145692424959
SNode-1482641;Diepensee Abzw Cargo                              ;52.376663536605 13.536037127404;52.376663536605;13.536037127404
SNode-1482680;Werbig oben                                       ;52.571372262548 14.404804996321;52.571372262548;14.404804996321
SNode-1482695;Bad Belzig                                        ;52.135691514163 12.595052165891;52.135691514163;12.595052165891
SNode-1482819;Cranzahl                                          ;50.511204758988 12.992205998538;50.511204758988;12.992205998538
SNode-1483042;Naumburg (Saale) Hbf                              ;51.163040803142 11.796657502034;51.163040803142;11.796657502034
SNode-1483080;Orlamünde                                         ;50.775531361400 11.544763134669;50.775531361400;11.544763134669
SNode-1483101;Reinhardsbrunn-Friedrichroda                      ;50.863517858178 10.562726549920;50.863517858178;10.562726549920
SNode-1483124;Obstfelderschmiede                                ;50.603716705705 11.133437359216;50.603716705705;11.133437359216
SNode-1483177;Gräfentonna                                       ;51.089682891910 10.733565995804;51.089682891910;10.733565995804
SNode-1483350;Beucha                                            ;51.323618969225 12.573250928225;51.323618969225;12.573250928225
SNode-1483403;Bernburg-Waldau                                   ;51.805694176456 11.728040690200;51.805694176456;11.728040690200
SNode-1483464;Bülstringen Florastraße                           ;52.296997876356 11.370873913170;52.296997876356;11.370873913170
SNode-1483503;Gadebusch                                         ;53.703981411257 11.121571317278;53.703981411257;11.121571317278
SNode-1483530;Waren (Müritz)                                    ;53.521386480621 12.680494997195;53.521386480621;12.680494997195
SNode-1483582;Osterrönfeld                                      ;54.283356494458 9.719934231883;54.283356494458;9.719934231883
SNode-1483608;Westerland (Sylt)                                 ;54.907638367755 8.310012733666;54.907638367755;8.310012733666
SNode-1483615;Wedel (Holst)                                     ;53.581842052894 9.704889136591;53.581842052894;9.704889136591
SNode-1483675;Jever                                             ;53.568782441465 7.893073160697;53.568782441465;7.893073160697
SNode-1483683;Jever                                             ;53.568748106409 7.893179262672;53.568748106409;7.893179262672
SNode-1483693;Hannover-Leinhausen Wbf                           ;52.402098557615 9.677901682113;52.402098557615;9.677901682113
SNode-1483694;Hamm (Westf) Pbf                                  ;51.678043437319 7.807364154787;51.678043437319;7.807364154787
SNode-1483695;Hamm (Westf) Pbf                                  ;51.678050444614 7.807425743160;51.678050444614;7.807425743160
SNode-1483707;Kassel Hbf                                        ;51.318577014960 9.489944030359;51.318577014960;9.489944030359
SNode-1483708;Würzburg Hbf                                      ;49.802150057771 9.935921853981;49.802150057771;9.935921853981
SNode-1483739;Helmstedt                                         ;52.222114169493 11.010663027412;52.222114169493;11.010663027412
SNode-1483748;Beddingen                                         ;52.217632629775 10.450546969833;52.217632629775;10.450546969833
SNode-1483751;Goslar                                            ;51.911093118915 10.422957095386;51.911093118915;10.422957095386
SNode-1483753;Holzminden                                        ;51.820039139127 9.453600340114;51.820039139127;9.453600340114
SNode-1483768;Schwerte (Ruhr)                                   ;51.442326783414 7.558838400476;51.442326783414;7.558838400476
SNode-1483788;Essen-Kray Nord                                   ;51.469485505615 7.080673360091;51.469485505615;7.080673360091
SNode-1483810;Herne Hot                                         ;51.557094276637 7.253349513495;51.557094276637;7.253349513495
SNode-1483828;Gladbeck-Zweckel                                  ;51.587979671067 6.985452926948;51.587979671067;6.985452926948
SNode-1483843;Duisburg Hbf                                      ;51.429675021312 6.776139271605;51.429675021312;6.776139271605
SNode-1483853;Duisburg Mannesmann                               ;51.369442534566 6.729666502070;51.369442534566;6.729666502070
SNode-1483868;Xanten                                            ;51.659744926706 6.445252905876;51.659744926706;6.445252905876
SNode-1483912;Kassel Hbf                                        ;51.317987120465 9.489819902210;51.317987120465;9.489819902210
SNode-1483953;Köln Deutzerfeld                                  ;50.940233619963 6.987940587243;50.940233619963;6.987940587243
SNode-1483955;Gremberg Nord                                     ;50.913872016432 7.019331250982;50.913872016432;7.019331250982
SNode-1483964;Gremberg Süd                                      ;50.889715132314 7.060273478427;50.889715132314;7.060273478427
SNode-1484006;Fröndenberg                                       ;51.471213160681 7.761832370417;51.471213160681;7.761832370417
SNode-1484027;Hamm (Westf) Pbf                                  ;51.678133082631 7.808013274106;51.678133082631;7.808013274106
SNode-1484037;Altenbeken (Kurve) Esig B/Asig Z                  ;51.762922577524 8.951847028508;51.762922577524;8.951847028508
SNode-1484070;Karthaus Mitte                                    ;49.704041597087 6.581826736155;49.704041597087;6.581826736155
SNode-1484092;Saarbrücken Saardamm                              ;49.237575807942 6.962368906671;49.237575807942;6.962368906671
SNode-1484132;Ludwigshafen (Rhein) BASF Werksgrenze             ;49.529720516218 8.404418390328;49.529720516218;8.404418390328
SNode-1484146;Wiesbaden Ost                                     ;50.041413279756 8.256252069419;50.041413279756;8.256252069419
SNode-1484148;Wiesbaden Hbf                                     ;50.070408533731 8.243414011194;50.070408533731;8.243414011194
SNode-1484157;Wiesbaden Hbf                                     ;50.070659393211 8.243676673612;50.070659393211;8.243676673612
SNode-1484164;Klein-Gerau Eichmühle                             ;49.921653351143 8.505426016928;49.921653351143;8.505426016928
SNode-1484182;Wiesbaden Hbf                                     ;50.070714030192 8.243906820488;50.070714030192;8.243906820488
SNode-1484183;Wiesbaden Hbf                                     ;50.070561457540 8.243618301432;50.070561457540;8.243618301432
SNode-1484210;Aschaffenburg Hbf                                 ;49.980623051835 9.143841692859;49.980623051835;9.143841692859
SNode-1484236;Hanau Hbf                                         ;50.120904359009 8.929401784277;50.120904359009;8.929401784277
SNode-1484252;Eschwege-Wehre                                    ;51.198752409545 9.998390484127;51.198752409545;9.998390484127
SNode-1484268;Mannheim-Friedrichsfeld Südeinf/Ausf              ;49.440543685460 8.565640795568;49.440543685460;8.565640795568
SNode-1484319;Schiltach                                         ;48.291131815154 8.335074970341;48.291131815154;8.335074970341
SNode-1484349;Friedrichshafen Hafen                             ;47.651076164884 9.482855925736;47.651076164884;9.482855925736
SNode-1484350;Sigmaringen                                       ;48.086982691765 9.221876463826;48.086982691765;9.221876463826
SNode-1484369;Hattingen Abzw                                    ;47.920293797669 8.773870294810;47.920293797669;8.773870294810
SNode-1484407;Wertheim                                          ;49.761861416111 9.513197730030;49.761861416111;9.513197730030
SNode-1484414;Neuenmarkt-Wirsberg Ost                           ;50.089116091533 11.595059872983;50.089116091533;11.595059872983
SNode-1484451;Bad Windsheim                                     ;49.506623061409 10.413014218332;49.506623061409;10.413014218332
SNode-1484482;Vohburg Werkbahnhof Bayernoil                     ;48.761500158143 11.593212811916;48.761500158143;11.593212811916
SNode-1484486;Oberstdorf                                        ;47.411129427376 10.277710871550;47.411129427376;10.277710871550
SNode-1484491;Peißenberg                                        ;47.797498494268 11.060288075514;47.797498494268;11.060288075514
SNode-1484492;Oberammergau                                      ;47.599534455621 11.057169041477;47.599534455621;11.057169041477
SNode-1484549;Rosenheim Süd                                     ;47.838276429330 12.136367398252;47.838276429330;12.136367398252
SNode-1484560;Furth im Wald                                     ;49.309862762932 12.839492563595;49.309862762932;12.839492563595
SNode-1484577;Leipzig Hbf                                       ;51.345031322083 12.381171523094;51.345031322083;12.381171523094
SNode-1484586;Nürnberg-Dutzendteich                             ;49.434317664236 11.123037890596;49.434317664236;11.123037890596
SNode-1484587;Nürnberg-Dutzendteich                             ;49.434349736502 11.123083742988;49.434349736502;11.123083742988
SNode-1484625;Oranienburg S-Bahn                                ;52.754194404389 13.248884604116;52.754194404389;13.248884604116
SNode-1484634;Gröbers Süd                                       ;51.426320735583 12.140577662827;51.426320735583;12.140577662827
SNode-1484643;Biesdorfer Kreuz Nord                             ;52.525726384136 13.536739814733;52.525726384136;13.536739814733
SNode-1484658;Hennigsdorf Nord (Hdo)                            ;52.661317979402 13.209893465039;52.661317979402;13.209893465039
SNode-1484659;Hennigsdorf Nord (Hdw)                            ;52.658515223219 13.193862337831;52.658515223219;13.193862337831
SNode-1484663;Hamburg-Altona                                    ;53.552560258960 9.934871656778;53.552560258960;9.934871656778
SNode-1484688;Genshagener Heide Nord                            ;52.338219252112 13.255480711882;52.338219252112;13.255480711882
SNode-1484697;Berlin Schönhauser Allee Abzw                     ;52.549416046691 13.413044391555;52.549416046691;13.413044391555
SNode-1484719;Berlin-Halensee Südkopf                           ;52.495128744604 13.291388015792;52.495128744604;13.291388015792
SNode-1484753;Arnsdorf West                                     ;51.099930073169 13.960880443129;51.099930073169;13.960880443129
SNode-1484785;Erfurt Gbf Eo                                     ;50.978838704710 11.080502243586;50.978838704710;11.080502243586
SNode-1484798;Eisfeld                                           ;50.417822713313 10.904637931031;50.417822713313;10.904637931031
SNode-1484817;Halle-Nietleben                                   ;51.488074224576 11.907491415601;51.488074224576;11.907491415601
SNode-1484845;Schkeuditz Übergabegleis                          ;51.404724846961 12.240015815181;51.404724846961;12.240015815181
SNode-1484855;Leipzig Hbf                                       ;51.345198787017 12.380775536683;51.345198787017;12.380775536683
SNode-1484856;Leipzig Hbf                                       ;51.345081623820 12.381045910839;51.345081623820;12.381045910839
SNode-1484877;Dalwitzhof Nordkopf                               ;54.068587809080 12.146436064089;54.068587809080;12.146436064089
SNode-1484882;Dalwitzhof Nordkopf                               ;54.068596806830 12.146435736810;54.068596806830;12.146435736810
SNode-1484889;Berlin-Schönefeld Flughafen Süd                   ;52.369495635455 13.522359426970;52.369495635455;13.522359426970
SNode-1484896;Zossen (Zoa)                                      ;52.232693350798 13.437711805480;52.232693350798;13.437711805480
SNode-1484907;Dresden Flughafen                                 ;51.124838005822 13.766249735030;51.124838005822;13.766249735030
SNode-1484944;Eschwege-Stegmühle                                ;51.186127234737 9.992999202996;51.186127234737;9.992999202996
SNode-1484958;Ueckermünde Stadthafen                            ;53.736703545705 14.052409942503;53.736703545705;14.052409942503
SNode-1484966;Querfurt                                          ;51.386921936971 11.603818635548;51.386921936971;11.603818635548
SNode-1484986;Harsleben                                         ;51.885523498466 11.068937120572;51.885523498466;11.068937120572
SNode-1485016;Sassnitz-Mukran Gbf (Einfahrgruppe)               ;54.490940233088 13.579153162910;54.490940233088;13.579153162910
SNode-1485017;Flensburg Weiche                                  ;54.758450316963 9.397992165153;54.758450316963;9.397992165153
SNode-1485018;Husum                                             ;54.472305531341 9.055016120719;54.472305531341;9.055016120719
SNode-1485019;Suchsdorf                                         ;54.349016397790 10.090869546468;54.349016397790;10.090869546468
SNode-1485020;Neuwittenbek                                      ;54.370729068107 10.028882981652;54.370729068107;10.028882981652
SNode-1485021;Gettorf                                           ;54.409854458276 9.978755667762;54.409854458276;9.978755667762
SNode-1485022;Eckernförde                                       ;54.467874819281 9.834880109414;54.467874819281;9.834880109414
SNode-1485023;Rieseby                                           ;54.541775358659 9.820549408638;54.541775358659;9.820549408638
SNode-1485024;Süderbrarup                                       ;54.636685823512 9.771301140642;54.636685823512;9.771301140642
SNode-1485025;Sörup                                             ;54.716812501795 9.669415143600;54.716812501795;9.669415143600
SNode-1485026;Husby                                             ;54.764418533770 9.575214867187;54.764418533770;9.575214867187
SNode-1485027;Flensburg                                         ;54.774285470516 9.436396542705;54.774285470516;9.436396542705
SNode-1485028;Kiel-Hassee Cittipark                             ;54.308640166666 10.100009108250;54.308640166666;10.100009108250
SNode-1485029;Felde-Brandsbek                                   ;54.309840343065 9.947428398759;54.309840343065;9.947428398759
SNode-1485030;Kiel-Elmschenhagen                                ;54.287193077057 10.180024162270;54.287193077057;10.180024162270
SNode-1485031;Raisdorf                                          ;54.281046595469 10.243611563612;54.281046595469;10.243611563612
SNode-1485032;Preetz                                            ;54.234124422357 10.275768347806;54.234124422357;10.275768347806
SNode-1485033;Ascheberg (Holst)                                 ;54.148573224951 10.339929752607;54.148573224951;10.339929752607
SNode-1485034;Plön                                              ;54.159448032078 10.422586064693;54.159448032078;10.422586064693
SNode-1485035;Bad Malente-Gremsmühlen                           ;54.167352602499 10.550717158506;54.167352602499;10.550717158506
SNode-1485036;Eutin                                             ;54.135573301927 10.609786742796;54.135573301927;10.609786742796
SNode-1485037;Neustadt (Holst) Gbf                              ;54.095625551959 10.794872774947;54.095625551959;10.794872774947
SNode-1485038;Neustadt (Holst)                                  ;54.103812376289 10.807982364255;54.103812376289;10.807982364255
SNode-1485039;Meimersdorf                                       ;54.285259563213 10.108267267023;54.285259563213;10.108267267023
SNode-1485040;Meimersdorf                                       ;54.285181235621 10.108323296172;54.285181235621;10.108323296172
SNode-1485041;Neumünster                                        ;54.076347454275 9.979923530817;54.076347454275;9.979923530817
SNode-1485042;Nortorf                                           ;54.166623795632 9.852606053801;54.166623795632;9.852606053801
SNode-1485043;Rendsburg                                         ;54.302708514516 9.670594496950;54.302708514516;9.670594496950
SNode-1485044;Owschlag                                          ;54.392725613243 9.590489328961;54.392725613243;9.590489328961
SNode-1485045;Schleswig                                         ;54.499875181909 9.537462122275;54.499875181909;9.537462122275
SNode-1485046;Jübek                                             ;54.559674466044 9.403762782630;54.559674466044;9.403762782630
SNode-1485047;Tarp                                              ;54.664866430175 9.398583348014;54.664866430175;9.398583348014
SNode-1485048;Flensburg Weiche                                  ;54.758234405165 9.398680997753;54.758234405165;9.398680997753
SNode-1485049;Neumünster                                        ;54.076376959150 9.979743266238;54.076376959150;9.979743266238
SNode-1485050;Neumünster Stadtwald                              ;54.083422861258 9.962851571945;54.083422861258;9.962851571945
SNode-1485051;Wasbek                                            ;54.075563900252 9.897728304973;54.075563900252;9.897728304973
SNode-1485052;Aukrug                                            ;54.082410711106 9.785901623388;54.082410711106;9.785901623388
SNode-1485053;Hohenwestedt                                      ;54.086723956088 9.653450224833;54.086723956088;9.653450224833
SNode-1485054;Osterstedt                                        ;54.102377055777 9.574760893619;54.102377055777;9.574760893619
SNode-1485055;Beringstedt                                       ;54.113613196416 9.538062007171;54.113613196416;9.538062007171
SNode-1485056;Gokels                                            ;54.119072201816 9.468683159979;54.119072201816;9.468683159979
SNode-1485057;Hademarschen                                      ;54.122800059991 9.415198842214;54.122800059991;9.415198842214
SNode-1485058;Beldorf                                           ;54.125168495318 9.355684390476;54.125168495318;9.355684390476
SNode-1485059;Albersdorf                                        ;54.146016164429 9.292904536079;54.146016164429;9.292904536079
SNode-1485060;Nordhastedt                                       ;54.168932447525 9.180508335093;54.168932447525;9.180508335093
SNode-1485061;Heide (Holst)                                     ;54.194232931265 9.101110009314;54.194232931265;9.101110009314
SNode-1485062;Neumünster                                        ;54.076272640356 9.980392816825;54.076272640356;9.980392816825
SNode-1485063;Rickling                                          ;53.999051063046 10.168327479481;53.999051063046;10.168327479481
SNode-1485064;Wahlstedt                                         ;53.961241762468 10.229626603739;53.961241762468;10.229626603739
SNode-1485065;Fahrenkrug                                        ;53.943909547121 10.253188583919;53.943909547121;10.253188583919
SNode-1485066;Bad Segeberg                                      ;53.933972204364 10.307880023579;53.933972204364;10.307880023579
SNode-1485067;Altengörs                                         ;53.898928813313 10.355342491826;53.898928813313;10.355342491826
SNode-1485068;Wakendorf                                         ;53.866391287845 10.365720638673;53.866391287845;10.365720638673
SNode-1485069;Fresenburg                                        ;53.842024477582 10.390791979764;53.842024477582;10.390791979764
SNode-1485070;Bad Oldesloe                                      ;53.805315423228 10.382533586959;53.805315423228;10.382533586959
SNode-1485071;Bad Schwartau                                     ;53.916316722428 10.702815961912;53.916316722428;10.702815961912
SNode-1485072;Ratekau                                           ;53.949797623703 10.743369722467;53.949797623703;10.743369722467
SNode-1485073;Timmendorfer Strand                               ;53.994332769997 10.762263776968;53.994332769997;10.762263776968
SNode-1485074;Scharbeutz                                        ;54.018742367866 10.745721594554;54.018742367866;10.745721594554
SNode-1485075;Haffkrug                                          ;54.054126283192 10.742496164057;54.054126283192;10.742496164057
SNode-1485076;Sierksdorf                                        ;54.068461755178 10.768736969201;54.068461755178;10.768736969201
SNode-1485077;Neustadt (Holst) Gbf                              ;54.095619270814 10.794787897974;54.095619270814;10.794787897974
SNode-1485078;Hasselburg                                        ;54.138988972051 10.823414602115;54.138988972051;10.823414602115
SNode-1485079;Groß Schlamin                                     ;54.163989160919 10.863786476965;54.163989160919;10.863786476965
SNode-1485080;Beschendorf                                       ;54.192572805301 10.875695390006;54.192572805301;10.875695390006
SNode-1485081;Lensahn                                           ;54.220097319109 10.890686790867;54.220097319109;10.890686790867
SNode-1485082;Grüner Hirsch                                     ;54.238927006756 10.887224864096;54.238927006756;10.887224864096
SNode-1485083;Oldenburg (Holst)                                 ;54.283928661626 10.882741938956;54.283928661626;10.882741938956
SNode-1485084;Göhl                                              ;54.287607600542 10.941815200940;54.287607600542;10.941815200940
SNode-1485085;Neukirchen (Holst)                                ;54.325673114312 11.030358567890;54.325673114312;11.030358567890
SNode-1485086;Großenbrode                                       ;54.366437019272 11.081246446095;54.366437019272;11.081246446095
SNode-1485087;Strukkamp                                         ;54.424238994400 11.131555778196;54.424238994400;11.131555778196
SNode-1485088;Burg (Fehmarn) West                               ;54.450296776437 11.180905804481;54.450296776437;11.180905804481
SNode-1485089;Puttgarden                                        ;54.500835819948 11.227558042473;54.500835819948;11.227558042473
SNode-1485090;Pönitz (Holst)                                    ;54.046518832056 10.671093188908;54.046518832056;10.671093188908
SNode-1485091;Pansdorf                                          ;53.980932468676 10.703144073119;53.980932468676;10.703144073119
SNode-1485092;Lübeck-Dänischburg                                ;53.911349672758 10.737748637319;53.911349672758;10.737748637319
SNode-1485093;Lübeck-Kücknitz Roter Hahn                        ;53.924475724627 10.818145374712;53.924475724627;10.818145374712
SNode-1485094;Lübeck-Travemünde Skandinavienkai                 ;53.950949604845 10.853955786085;53.950949604845;10.853955786085
SNode-1485095;Lübeck-Travemünde Hafen                           ;53.958855383017 10.866591398281;53.958855383017;10.866591398281
SNode-1485096;Lübeck-Dänischburg                                ;53.911344740781 10.737735502818;53.911344740781;10.737735502818
SNode-1485097;Reinfeld (Holst)                                  ;53.830477152112 10.494382133318;53.830477152112;10.494382133318
SNode-1485098;Bad Oldesloe                                      ;53.805276015305 10.382623440291;53.805276015305;10.382623440291
SNode-1485099;Kupfermühle                                       ;53.762401039042 10.326808653788;53.762401039042;10.326808653788
SNode-1485100;Bargteheide                                       ;53.728164570732 10.269084460770;53.728164570732;10.269084460770
SNode-1485101;Ahrensburg-Gartenholz                             ;53.689032099261 10.251926907472;53.689032099261;10.251926907472
SNode-1485102;Ahrensburg                                        ;53.669297852284 10.236263206161;53.669297852284;10.236263206161
SNode-1485103;Hamburg-Rahlstedt                                 ;53.604802119231 10.154295453453;53.604802119231;10.154295453453
SNode-1485104;Hamburg-Tonndorf                                  ;53.587273781351 10.124559885910;53.587273781351;10.124559885910
SNode-1485105;Hamburg-Wandsbek                                  ;53.569953322607 10.077169753449;53.569953322607;10.077169753449
SNode-1485106;Hamburg Hasselbrook                               ;53.564755630568 10.056475248050;53.564755630568;10.056475248050
SNode-1485107;Lübeck Flughafen                                  ;53.804943932531 10.697224504472;53.804943932531;10.697224504472
SNode-1485108;Pogeez                                            ;53.754024077350 10.727648204023;53.754024077350;10.727648204023
SNode-1485109;Ratzeburg                                         ;53.698296207271 10.740637775922;53.698296207271;10.740637775922
SNode-1485110;Mölln (Lauenburg)                                 ;53.624449971578 10.683082407649;53.624449971578;10.683082407649
SNode-1485111;Güster                                            ;53.537876250072 10.656744404354;53.537876250072;10.656744404354
SNode-1485112;Lübeck St Jürgen                                  ;53.842305912432 10.703525776577;53.842305912432;10.703525776577
SNode-1485113;Herrnburg                                         ;53.837688368313 10.759862153228;53.837688368313;10.759862153228
SNode-1485114;Lüdersdorf (Meckl)                                ;53.832919691872 10.815226488646;53.832919691872;10.815226488646
SNode-1485115;Schönberg (Meckl)                                 ;53.853397152644 10.927662559484;53.853397152644;10.927662559484
SNode-1485116;Menzendorf                                        ;53.848088560190 11.012868069076;53.848088560190;11.012868069076
SNode-1485117;Grieben (Meckl)                                   ;53.851280082325 11.068674072494;53.851280082325;11.068674072494
SNode-1485118;Grevesmühlen                                      ;53.857336396254 11.184445826994;53.857336396254;11.184445826994
SNode-1485119;Plüschow                                          ;53.837075492971 11.286077507974;53.837075492971;11.286077507974
SNode-1485120;Bobitz                                            ;53.804586448041 11.362846485927;53.804586448041;11.362846485927
SNode-1485121;Bad Kleinen                                       ;53.766710157060 11.466701893583;53.766710157060;11.466701893583
SNode-1485122;Ventschow                                         ;53.787163199352 11.579985930380;53.787163199352;11.579985930380
SNode-1485123;Blankenberg (Meckl)                               ;53.772212348650 11.715166373597;53.772212348650;11.715166373597
SNode-1485124;Warnow (Meckl)                                    ;53.788975016306 11.871920677670;53.788975016306;11.871920677670
SNode-1485125;Bützow                                            ;53.837340530238 11.998622765584;53.837340530238;11.998622765584
SNode-1485126;Güstrow Gbf                                       ;53.805298460397 12.163944096601;53.805298460397;12.163944096601
SNode-1485127;Güstrow                                           ;53.800690349568 12.172508630977;53.800690349568;12.172508630977
SNode-1485128;Priemerburg - NUP Güstrow                         ;53.795992132963 12.223001369718;53.795992132963;12.223001369718
SNode-1485129;Priemerwald Süd (ehemals)                         ;53.789048081717 12.244238845264;53.789048081717;12.244238845264
SNode-1485130;Lalendorf                                         ;53.754973937919 12.386375142551;53.754973937919;12.386375142551
SNode-1485131;Neu Wokern                                        ;53.759963304666 12.500901204386;53.759963304666;12.500901204386
SNode-1485132;Teterow                                           ;53.768362012609 12.578210765831;53.768362012609;12.578210765831
SNode-1485133;Malchin                                           ;53.743349650129 12.761138408851;53.743349650129;12.761138408851
SNode-1485134;Reuterstadt Stavenhagen                           ;53.706869937662 12.914024397509;53.706869937662;12.914024397509
SNode-1485135;Grischow (Meckl)                                  ;53.683242443473 12.999592327788;53.683242443473;12.999592327788
SNode-1485136;Kleeth                                            ;53.623122199478 13.060477297441;53.623122199478;13.060477297441
SNode-1485137;Mölln (Meckl)                                     ;53.585898795440 13.084490857133;53.585898795440;13.084490857133
SNode-1485138;Blankenhof                                        ;53.569431040453 13.136329910065;53.569431040453;13.136329910065
SNode-1485139;Neubrandenburg                                    ;53.561966543482 13.261852705775;53.561966543482;13.261852705775
SNode-1485140;Neubrandenburg Gbf                                ;53.560770246578 13.272023629866;53.560770246578;13.272023629866
SNode-1485141;Sponholz                                          ;53.563835795742 13.366309974286;53.563835795742;13.366309974286
SNode-1485142;Neetzka                                           ;53.533487846118 13.500807868304;53.533487846118;13.500807868304
SNode-1485143;Oertzenhof                                        ;53.518000134649 13.573199478872;53.518000134649;13.573199478872
SNode-1485144;Lübeck Hgbf                                       ;53.851950843026 10.655683200869;53.851950843026;10.655683200869
SNode-1485145;Lübeck-Schlutup                                   ;53.885785612036 10.795378884956;53.885785612036;10.795378884956
SNode-1485146;Lüneburg                                          ;53.249737634620 10.419968229249;53.249737634620;10.419968229249
SNode-1485147;Jäger                                             ;53.264109520540 10.431975003129;53.264109520540;10.431975003129
SNode-1485148;Adendorf                                          ;53.282432109411 10.454393811319;53.282432109411;10.454393811319
SNode-1485149;Echem                                             ;53.337003513952 10.537196760915;53.337003513952;10.537196760915
SNode-1485150;Lauenburg (Elbe)                                  ;53.369365538838 10.567403047582;53.369365538838;10.567403047582
SNode-1485151;Dalldorf                                          ;53.427604995697 10.610031973162;53.427604995697;10.610031973162
SNode-1485152;Büchen                                            ;53.475164412631 10.622703817426;53.475164412631;10.622703817426
SNode-1485153;Dannenberg Ost                                    ;53.105012922006 11.118314755196;53.105012922006;11.118314755196
SNode-1485154;Hitzacker                                         ;53.139179415365 11.038405262268;53.139179415365;11.038405262268
SNode-1485155;Leitstade                                         ;53.169158505972 10.912735194044;53.169158505972;10.912735194044
SNode-1485156;Göhrde                                            ;53.167857253372 10.851897735579;53.167857253372;10.851897735579
SNode-1485157;Neetzendorf                                       ;53.163742207424 10.760596810120;53.163742207424;10.760596810120
SNode-1485158;Dahlenburg                                        ;53.169325583199 10.708791731954;53.169325583199;10.708791731954
SNode-1485159;Bavendorf                                         ;53.187508613210 10.629538446471;53.187508613210;10.629538446471
SNode-1485160;Vastorf                                           ;53.199123805950 10.555656155496;53.199123805950;10.555656155496
SNode-1485161;Wendisch Evern                                    ;53.217618565335 10.462698010885;53.217618565335;10.462698010885
SNode-1485162;Lüneburg-Westseite                                ;53.249781120334 10.418294785440;53.249781120334;10.418294785440
SNode-1485163;Bardowick Hp                                      ;53.290633295971 10.371247085007;53.290633295971;10.371247085007
SNode-1485164;Radbruch                                          ;53.317274334177 10.291311557883;53.317274334177;10.291311557883
SNode-1485165;Ashausen                                          ;53.368249632175 10.146884688718;53.368249632175;10.146884688718
SNode-1485166;Niebüll                                           ;54.789541892040 8.835004370301;54.789541892040;8.835004370301
SNode-1485167;Witzwort                                          ;54.385715174268 8.998134114056;54.385715174268;8.998134114056
SNode-1485168;Harblek                                           ;54.361866512438 8.962494033541;54.361866512438;8.962494033541
SNode-1485169;Tönning                                           ;54.314065924464 8.937585290896;54.314065924464;8.937585290896
SNode-1485170;Kating                                            ;54.326096138328 8.871831725461;54.326096138328;8.871831725461
SNode-1485171;Katharinenheerd                                   ;54.334123958785 8.830306067031;54.334123958785;8.830306067031
SNode-1485172;Garding                                           ;54.327110416856 8.784507493580;54.327110416856;8.784507493580
SNode-1485173;Sandwehle                                         ;54.325706867906 8.758703413983;54.325706867906;8.758703413983
SNode-1485174;Tating                                            ;54.322809796940 8.709297177537;54.322809796940;8.709297177537
SNode-1485175;Bad St Peter Süd                                  ;54.305021383353 8.648214866551;54.305021383353;8.648214866551
SNode-1485176;Bad St Peter-Ording                               ;54.317444133929 8.614453880907;54.317444133929;8.614453880907
SNode-1485177;Tiebensee                                         ;54.219438359943 9.019145711742;54.219438359943;9.019145711742
SNode-1485178;Jarrenwisch                                       ;54.212119297223 8.963259125408;54.212119297223;8.963259125408
SNode-1485179;Wesselburen                                       ;54.207219757112 8.933211752405;54.207219757112;8.933211752405
SNode-1485180;Süderdeich                                        ;54.198669329161 8.911549996650;54.198669329161;8.911549996650
SNode-1485181;Reinsbüttel                                       ;54.180780429585 8.906056318366;54.180780429585;8.906056318366
SNode-1485182;Büsum                                             ;54.133847276638 8.867162602891;54.133847276638;8.867162602891
SNode-1485183;Herzhorn                                          ;53.783565590822 9.484189572607;53.783565590822;9.484189572607
SNode-1485184;Glückstadt                                        ;53.788437014920 9.428559327266;53.788437014920;9.428559327266
SNode-1485185;Krempe                                            ;53.834021555263 9.481776978682;53.834021555263;9.481776978682
SNode-1485186;Kremperheide                                      ;53.881520470211 9.480288795673;53.881520470211;9.480288795673
SNode-1485187;Itzehoe                                           ;53.923951133000 9.510251057442;53.923951133000;9.510251057442
SNode-1485188;Wilster                                           ;53.926283064995 9.383108534015;53.926283064995;9.383108534015
SNode-1485189;Burg (Dithm)                                      ;54.007945001917 9.249277511759;54.007945001917;9.249277511759
SNode-1485190;St Michaelisdonn                                  ;53.990026021844 9.117724407715;53.990026021844;9.117724407715
SNode-1485191;Meldorf Hp                                        ;54.087503298898 9.080061119273;54.087503298898;9.080061119273
SNode-1485192;Hemmingstedt                                      ;54.151740801556 9.088225073279;54.151740801556;9.088225073279
SNode-1485193;Heide (Holst)                                     ;54.194228495426 9.100620442194;54.194228495426;9.100620442194
SNode-1485194;Lunden                                            ;54.331130127008 9.030804954679;54.331130127008;9.030804954679
SNode-1485195;Friedrichstadt                                    ;54.378162779004 9.079093718274;54.378162779004;9.079093718274
SNode-1485196;Husum                                             ;54.472121137717 9.054895639177;54.472121137717;9.054895639177
SNode-1485197;Bredstedt                                         ;54.621413919693 8.970027720354;54.621413919693;8.970027720354
SNode-1485198;Langenhorn (Schlesw)                              ;54.686580623235 8.946194035499;54.686580623235;8.946194035499
SNode-1485199;Stedesand                                         ;54.737406937788 8.918177975904;54.737406937788;8.918177975904
SNode-1485200;Lindholm                                          ;54.757774066256 8.870126389680;54.757774066256;8.870126389680
SNode-1485201;Niebüll                                           ;54.789560854988 8.834742982294;54.789560854988;8.834742982294
SNode-1485202;Lehnshallig                                       ;54.822034710400 8.753220881081;54.822034710400;8.753220881081
SNode-1485203;Morsum (Sylt)                                     ;54.872218563176 8.432557555599;54.872218563176;8.432557555599
SNode-1485204;Keitum                                            ;54.888795204658 8.369016863199;54.888795204658;8.369016863199
SNode-1485205;Wilster                                           ;53.925444959515 9.383264177584;53.925444959515;9.383264177584
SNode-1485206;Brunsbüttel                                       ;53.898352546471 9.159823335428;53.898352546471;9.159823335428
SNode-1485207;St Michaelisdonn                                  ;53.989985575003 9.117557043408;53.989985575003;9.117557043408
SNode-1485208;Pinneberg                                         ;53.655262958076 9.797386144760;53.655262958076;9.797386144760
SNode-1485209;Prisdorf                                          ;53.675149308385 9.760525449547;53.675149308385;9.760525449547
SNode-1485210;Tornesch                                          ;53.697323711617 9.714957706850;53.697323711617;9.714957706850
SNode-1485211;Elmshorn                                          ;53.755196462837 9.659075636264;53.755196462837;9.659075636264
SNode-1485212;Horst in Holstein                                 ;53.804295038530 9.645219249146;53.804295038530;9.645219249146
SNode-1485213;Dauenhof                                          ;53.852602251529 9.680776099210;53.852602251529;9.680776099210
SNode-1485214;Wrist                                             ;53.931872059618 9.747729344441;53.931872059618;9.747729344441
SNode-1485215;Brokstedt                                         ;53.989825773792 9.823276169709;53.989825773792;9.823276169709
SNode-1485216;Neumünster                                        ;54.076309184359 9.980131816135;54.076309184359;9.980131816135
SNode-1485217;Einfeld                                           ;54.129352740456 9.997928562430;54.129352740456;9.997928562430
SNode-1485218;Bordesholm                                        ;54.174391918176 10.043826877418;54.174391918176;10.043826877418
SNode-1485219;Flintbek                                          ;54.243672686800 10.063228318282;54.243672686800;10.063228318282
SNode-1485220;Meimersdorf                                       ;54.284667984384 10.108822825722;54.284667984384;10.108822825722
SNode-1485221;Hamburg-Bahrenfeld                                ;53.560044901689 9.909964726085;53.560044901689;9.909964726085
SNode-1485222;Hamburg-Othmarschen                               ;53.559262564400 9.886898880549;53.559262564400;9.886898880549
SNode-1485223;Hamburg-Klein Flottbek                            ;53.558181121360 9.860612249995;53.558181121360;9.860612249995
SNode-1485224;Hamburg Hochkamp                                  ;53.561314210601 9.842214678072;53.561314210601;9.842214678072
SNode-1485225;Hamburg-Blankenese                                ;53.564114470799 9.813809563506;53.564114470799;9.813809563506
SNode-1485226;Hamburg-Langenfelde (S-Bahn)                      ;53.579655233047 9.930931888070;53.579655233047;9.930931888070
SNode-1485227;Hamburg-Stellingen (S-Bahn)                       ;53.589694072578 9.918337245195;53.589694072578;9.918337245195
SNode-1485228;Hamburg-Eidelstedt (S-Bahn)                       ;53.596293844231 9.906053840821;53.596293844231;9.906053840821
SNode-1485229;Hamburg Elbgaustraße                              ;53.602922155425 9.892828611046;53.602922155425;9.892828611046
SNode-1485230;Krupunder                                         ;53.616054976070 9.867375988139;53.616054976070;9.867375988139
SNode-1485231;Halstenbek                                        ;53.630034184012 9.839928631426;53.630034184012;9.839928631426
SNode-1485232;Pinneberg (S-Bahn)                                ;53.655037232785 9.798153115612;53.655037232785;9.798153115612
SNode-1485233;Hamburg-Iserbrook                                 ;53.576119186169 9.815135304625;53.576119186169;9.815135304625
SNode-1485234;Hamburg-Sülldorf                                  ;53.581161281039 9.797073686455;53.581161281039;9.797073686455
SNode-1485235;Hamburg-Rissen                                    ;53.583237956198 9.757072628867;53.583237956198;9.757072628867
SNode-1485236;Hamburg-Langenfelde Bbf                           ;53.581704662450 9.924409820284;53.581704662450;9.924409820284
SNode-1485237;Hamburg-Langenfelde Abzw                          ;53.586739781940 9.920549745313;53.586739781940;9.920549745313
SNode-1485238;Hamburg-Lokstedt                                  ;53.602817333250 9.972726923918;53.602817333250;9.972726923918
SNode-1485239;Hamburg-Barmbek                                   ;53.600357713339 10.034500961865;53.600357713339;10.034500961865
SNode-1485240;Hamburg Airport                                   ;53.632696801209 10.006729359760;53.632696801209;10.006729359760
SNode-1485241;Hamburg Berliner Tor (Landwehr)                   ;53.552980500394 10.024657058313;53.552980500394;10.024657058313
SNode-1485242;Hamburg Landwehr                                  ;53.560833699445 10.037131448422;53.560833699445;10.037131448422
SNode-1485243;Hamburg Hasselbrook (S-Bahn)                      ;53.564835565196 10.056490189314;53.564835565196;10.056490189314
SNode-1485244;Hamburg Wandsbeker Chaussee                       ;53.570102095600 10.059817573674;53.570102095600;10.059817573674
SNode-1485245;Hamburg Friedrichsberg                            ;53.576177241249 10.057468079085;53.576177241249;10.057468079085
SNode-1485246;Hamburg-Barmbek (S-Bahn)                          ;53.587213461134 10.045909649244;53.587213461134;10.045909649244
SNode-1485247;Hamburg Alte Wöhr                                 ;53.597625291891 10.035528637360;53.597625291891;10.035528637360
SNode-1485248;Hamburg-Rübenkamp                                 ;53.606764494886 10.032910851668;53.606764494886;10.032910851668
SNode-1485249;Hamburg Kornweg (Klein Borstel)                   ;53.632297361081 10.053665312445;53.632297361081;10.053665312445
SNode-1485250;Hamburg Hoheneichen                               ;53.635363881107 10.067303882216;53.635363881107;10.067303882216
SNode-1485251;Hamburg-Wellingsbüttel                            ;53.641575221338 10.083370025665;53.641575221338;10.083370025665
SNode-1485252;Hamburg-Poppenbüttel                              ;53.651848940696 10.093889257218;53.651848940696;10.093889257218
SNode-1485253;Hamburg-Wandsbek                                  ;53.569826521464 10.077260156720;53.569826521464;10.077260156720
SNode-1485254;Hamburg Berliner Tor                              ;53.550678960533 10.019226657479;53.550678960533;10.019226657479
SNode-1485255;Hamburg Berliner Tor (Bergedorf)                  ;53.552464813813 10.024999407984;53.552464813813;10.024999407984
SNode-1485256;Hamburg-Rothenburgsort (S-Bahn)                   ;53.538281008254 10.044445140007;53.538281008254;10.044445140007
SNode-1485257;Hamburg-Tiefstack                                 ;53.530784868426 10.066475510080;53.530784868426;10.066475510080
SNode-1485258;Hamburg-Billwerder-Moorfleet                      ;53.515512497792 10.097088528184;53.515512497792;10.097088528184
SNode-1485259;Hamburg Mittlerer Landweg                         ;53.498318860857 10.130628965814;53.498318860857;10.130628965814
SNode-1485260;Hamburg-Allermöhe (S-Bahn)                        ;53.490349725219 10.158662927483;53.490349725219;10.158662927483
SNode-1485261;Hamburg-Nettelnburg                               ;53.487903581347 10.181276498944;53.487903581347;10.181276498944
SNode-1485262;Hamburg-Bergedorf                                 ;53.489846573270 10.206245963743;53.489846573270;10.206245963743
SNode-1485263;Reinbek                                           ;53.508008498667 10.251980755336;53.508008498667;10.251980755336
SNode-1485264;Wohltorf                                          ;53.520657528795 10.278113660905;53.520657528795;10.278113660905
SNode-1485265;Aumühle                                           ;53.530025878668 10.314689605368;53.530025878668;10.314689605368
SNode-1485266;Hamburg Hbf                                       ;53.553484211888 10.006064508530;53.553484211888;10.006064508530
SNode-1485267;Hamburg Unterelbe                                 ;53.465307038747 9.978027635064;53.465307038747;9.978027635064
SNode-1485268;Hamburg Unterelbe Seehafen                        ;53.472278018931 9.960990297932;53.472278018931;9.960990297932
SNode-1485269;Hamburg-Harburg                                   ;53.456050612653 9.990928335501;53.456050612653;9.990928335501
SNode-1485270;Hamburg-Wilhelmsburg                              ;53.498248437234 10.006150701786;53.498248437234;10.006150701786
SNode-1485271;Hamburg Jungfernstieg                             ;53.552297672127 9.993948803140;53.552297672127;9.993948803140
SNode-1485272;Hamburg-Stadthausbrücke                           ;53.549492041461 9.984392315403;53.549492041461;9.984392315403
SNode-1485273;Hamburg Landungsbrücken                           ;53.546302308779 9.970622667350;53.546302308779;9.970622667350
SNode-1485274;Hamburg Reeperbahn                                ;53.549657921236 9.957423301260;53.549657921236;9.957423301260
SNode-1485275;Hamburg-Veddel (S-Bahn)                           ;53.521880720676 10.013459652790;53.521880720676;10.013459652790
SNode-1485276;Hamburg-Wilhelmsburg (S-Bahn)                     ;53.498901568803 10.006916196624;53.498901568803;10.006916196624
SNode-1485277;Buchholz (Nordheide)                              ;53.324257782822 9.876440989457;53.324257782822;9.876440989457
SNode-1485278;Hamburg-Harburg                                   ;53.456251448307 9.992323141663;53.456251448307;9.992323141663
SNode-1485279;Hamburg-Rothenburgsort                            ;53.527987492202 10.071631892429;53.527987492202;10.071631892429
SNode-1485280;Hamburg-Billwerder                                ;53.507310495294 10.112651927774;53.507310495294;10.112651927774
SNode-1485281;Ashausen                                          ;53.368452775018 10.146814187154;53.368452775018;10.146814187154
SNode-1485282;Stelle                                            ;53.387765674539 10.109638981379;53.387765674539;10.109638981379
SNode-1485283;Rotenburg (Wümme)                                 ;53.112367846557 9.389947727603;53.112367846557;9.389947727603
SNode-1485284;Scheeßel                                          ;53.166463630146 9.497807565037;53.166463630146;9.497807565037
SNode-1485285;Lauenbrück                                        ;53.196868186451 9.563200892273;53.196868186451;9.563200892273
SNode-1485286;Tostedt                                           ;53.272025163126 9.732011535873;53.272025163126;9.732011535873
SNode-1485287;Sprötze                                           ;53.309590480983 9.812536868979;53.309590480983;9.812536868979
SNode-1485288;Buchholz (Nordheide)                              ;53.324797583421 9.876124639552;53.324797583421;9.876124639552
SNode-1485289;Stelle                                            ;53.387555515745 10.109239394820;53.387555515745;10.109239394820
SNode-1485290;Wremen                                            ;53.646475379276 8.521195241279;53.646475379276;8.521195241279
SNode-1485291;Dorum                                             ;53.688638839452 8.575761048912;53.688638839452;8.575761048912
SNode-1485292;Nordholz                                          ;53.778314765979 8.620675978603;53.778314765979;8.620675978603
SNode-1485293;Bremen-Sebaldsbrück                               ;53.061614171783 8.887135655816;53.061614171783;8.887135655816
SNode-1485294;Bremen-Sebaldsbrück Wbf                           ;53.051735667184 8.906906804517;53.051735667184;8.906906804517
SNode-1485295;Bremen Hbf                                        ;53.083182022162 8.813593783722;53.083182022162;8.813593783722
SNode-1485296;Bremen Rbf                                        ;53.110566378434 8.780527240388;53.110566378434;8.780527240388
SNode-1485297;Sagehorn                                          ;53.084030420339 9.022324810586;53.084030420339;9.022324810586
SNode-1485298;Bremen-Burg                                       ;53.159783889871 8.704895124450;53.159783889871;8.704895124450
SNode-1485299;Bremen-Lesum                                      ;53.170724780783 8.686103785488;53.170724780783;8.686103785488
SNode-1485300;Bremen-St Magnus                                  ;53.171574302949 8.670266349507;53.171574302949;8.670266349507
SNode-1485301;Bremen-Schönebeck                                 ;53.172804319649 8.649478322733;53.172804319649;8.649478322733
SNode-1485302;Bremen-Vegesack                                   ;53.170227526203 8.631026135078;53.170227526203;8.631026135078
SNode-1485303;Wüsting                                           ;53.118392003662 8.334957823911;53.118392003662;8.334957823911
SNode-1485304;Hude                                              ;53.109483163696 8.460363212517;53.109483163696;8.460363212517
SNode-1485305;Bookholzberg                                      ;53.099138936155 8.532812732474;53.099138936155;8.532812732474
SNode-1485306;Schierbrok                                        ;53.084700304776 8.578938197154;53.084700304776;8.578938197154
SNode-1485307;Hoykenkamp                                        ;53.069761587628 8.598733879910;53.069761587628;8.598733879910
SNode-1485308;Delmenhorst                                       ;53.052789459637 8.629499973802;53.052789459637;8.629499973802
SNode-1485309;Delmenhorst Df                                    ;53.056294514272 8.670895390355;53.056294514272;8.670895390355
SNode-1485310;Delmenhorst Heidkrug                              ;53.057059406786 8.679800152391;53.057059406786;8.679800152391
SNode-1485311;Bremen-Neustadt                                   ;53.076467813918 8.786279957407;53.076467813918;8.786279957407
SNode-1485312;Bremen Hbf                                        ;53.083064470389 8.813300222070;53.083064470389;8.813300222070
SNode-1485313;Sandkrug                                          ;53.055000183908 8.254843121465;53.055000183908;8.254843121465
SNode-1485314;Huntlosen                                         ;52.990755216254 8.266464988619;52.990755216254;8.266464988619
SNode-1485315;Großenkneten                                      ;52.945320895685 8.241429891478;52.945320895685;8.241429891478
SNode-1485316;Ahlhorn                                           ;52.898542387462 8.209360410592;52.898542387462;8.209360410592
SNode-1485317;Höltinghausen                                     ;52.870250052719 8.136229870328;52.870250052719;8.136229870328
SNode-1485318;Cloppenburg                                       ;52.843998688808 8.055895192602;52.843998688808;8.055895192602
SNode-1485319;Bartmannsholte                                    ;52.753323762908 7.965976063034;52.753323762908;7.965976063034
SNode-1485320;Essen (Oldb)                                      ;52.723889904129 7.945483100188;52.723889904129;7.945483100188
SNode-1485321;Quakenbrück                                       ;52.673953360857 7.947809833149;52.673953360857;7.947809833149
SNode-1485322;Bersenbrück                                       ;52.551090023222 7.942579418880;52.551090023222;7.942579418880
SNode-1485323;Alfhausen                                         ;52.503478245882 7.964396281886;52.503478245882;7.964396281886
SNode-1485324;Hesepe                                            ;52.439188168695 7.967573595548;52.439188168695;7.967573595548
SNode-1485325;Bramsche                                          ;52.410890819064 7.974912535719;52.410890819064;7.974912535719
SNode-1485326;Achmer                                            ;52.390399917145 7.941742211147;52.390399917145;7.941742211147
SNode-1485327;Halen                                             ;52.339138930241 7.945020380063;52.339138930241;7.945020380063
SNode-1485328;Osnabrück-Eversburg                               ;52.301850094662 8.004241775924;52.301850094662;8.004241775924
SNode-1485329;Hude                                              ;53.109763763644 8.460689800560;53.109763763644;8.460689800560
SNode-1485330;Neuenkoop                                         ;53.146269614664 8.460868810393;53.146269614664;8.460868810393
SNode-1485331;Berne                                             ;53.183756874089 8.475358830525;53.183756874089;8.475358830525
SNode-1485332;Elsfleth                                          ;53.234280275029 8.464080361837;53.234280275029;8.464080361837
SNode-1485333;Hammelwarden                                      ;53.278616005322 8.472554122426;53.278616005322;8.472554122426
SNode-1485334;Brake (Unterweser)                                ;53.328716149183 8.481210523048;53.328716149183;8.481210523048
SNode-1485335;Rodenkirchen (Oldb)                               ;53.399830537355 8.454796975610;53.399830537355;8.454796975610
SNode-1485336;Kleinensiel                                       ;53.444730237751 8.476104326441;53.444730237751;8.476104326441
SNode-1485337;Kayhauserfeld                                     ;53.172425433700 8.061550078336;53.172425433700;8.061550078336
SNode-1485338;Bad Zwischenahn                                   ;53.182460701005 8.004031805643;53.182460701005;8.004031805643
SNode-1485339;Westerstede-Ocholt                                ;53.202401090832 7.885749556594;53.202401090832;7.885749556594
SNode-1485340;Augustfehn                                        ;53.220843302502 7.759993465086;53.220843302502;7.759993465086
SNode-1485341;Stickhausen-Velde (Ostfriesl)                     ;53.216767052054 7.654284675215;53.216767052054;7.654284675215
SNode-1485342;Nortmoor                                          ;53.248018332161 7.557768295556;53.248018332161;7.557768295556
