Bundesland;Bahnhofsmanagement;BahnhofNr;Station;DS100;Bahnhofskategorie;Strasse;PLZ;Ort;Aufgabenträger;Verkehrsverb;Fernverkehr;Nahverkehr;lat;lon
Hamburg;Hamburg;2517;Hamburg-Altona;AA;1;Scheel-Plessen-Str. 17;22765;Hamburg;Hamburger Verkehrsverbund GmbH;HVV;ja;ja;53.5537770753625;9.93518114089966
Niedersachsen;Hamburg;20;Agathenburg;AABG;6;Bahnhofstr. 7 ;21684;Agathenburg;Landesnahverkehrsgesellschaft Niedersachsen mbH;HVV;nein;ja;53.5641189843671;9.53117609024047
Schleswig-Holstein;Schleswig-Holstein;7225;Achterwehr;AACW;7;Dorfstraße;24239;Achterwehr;LVS Schleswig-Holstein Landesweite Verkehrsservicegesellschaft mbH;;nein;nein;54.3150796556221;9.964337348938
Schleswig-Holstein;Schleswig-Holstein;191;Ascheberg (Holst);AAG;5;Bahnhofstr.8;24326;Ascheberg (Holstein);LVS Schleswig-Holstein Landesweite Verkehrsservicegesellschaft mbH;SH-Tarif;nein;ja;54.1485526980137;10.3402257760366
Schleswig-Holstein;Hamburg;229;Aumühle;AAH;4;Bahnhofstr. 1;21521;Aumühle;LVS Schleswig-Holstein Landesweite Verkehrsservicegesellschaft mbH;HVV;nein;ja;53.5299230988564;10.314471244812
Schleswig-Holstein;Schleswig-Holstein;8169;Ahrensburg-Gartenholz;AAHG;5;;22926;Ahrensburg;LVS Schleswig-Holstein Landesweite Verkehrsservicegesellschaft mbH;SH-Tarif;nein;ja;53.6887446767122;10.2518400996924
Schleswig-Holstein;Schleswig-Holstein;27;Ahrensburg;AAHR;4;Bahnhofstr. 13;22926;Ahrensburg;LVS Schleswig-Holstein Landesweite Verkehrsservicegesellschaft mbH;SH-Tarif;nein;ja;53.6689830976172;10.2357843518257
Hamburg;Hamburg;2458;Hamburg Airport (Flughafen);AAI;4;Flughafenstraße 1;23335;Hamburg;Hamburger Verkehrsverbund GmbH;HVV;nein;ja;53.6325966939971;10.0066655874252
Schleswig-Holstein;Schleswig-Holstein;41;Albersdorf;AAL;7;Bahnhofstr. 1;25767;Albersdorf;LVS Schleswig-Holstein Landesweite Verkehrsservicegesellschaft mbH;0;nein;ja;54.1461697552048;9.29245591163636
Hamburg;Hamburg;7979;Allermöhe;AALH;4;Fleetplatz 1;21035;Hamburg;Hamburger Verkehrsverbund GmbH;HVV;nein;ja;53.4903416179024;10.159109747827
Niedersachsen;Hamburg;195;Ashausen;AASN;6;An der Bahn 1;21435;Stelle;Landesnahverkehrsgesellschaft Niedersachsen mbH;HVV;nein;ja;53.3688293408431;10.1453304290772
Schleswig-Holstein;Schleswig-Holstein;97;Altengörs;AAT;7;Bahnhofstr.30;23818;Neuengörs;LVS Schleswig-Holstein Landesweite Verkehrsservicegesellschaft mbH;SH-Tarif;nein;ja;53.8991126887609;10.3551244735718
Schleswig-Holstein;Schleswig-Holstein;2996;Aukrug;AAU;7;Bahnhofstraße 1;24613;Aukrug;LVS Schleswig-Holstein Landesweite Verkehrsservicegesellschaft mbH;0;nein;ja;54.0824331045842;9.78577226400375
Hamburg;Hamburg;78;Alte Wöhr;AAW;4;Alte Wöhr 20;22307;Hamburg;Hamburger Verkehrsverbund GmbH;HVV;nein;ja;53.598068505425;10.0352954864502
Hamburg;Hamburg;687;Blankenese;AB;3;Erik-Blumenfeld-Platz 29;22587;Hamburg;Hamburger Verkehrsverbund GmbH;HVV;nein;ja;53.56450003427;9.81522631645203
Niedersachsen;Hamburg;402;Bardowick;ABAD;6;Bahnhofstraße;21357;Bardowick;Landesnahverkehrsgesellschaft Niedersachsen mbH;HVV;nein;ja;53.2902865216017;10.372284142499
Schleswig-Holstein;Schleswig-Holstein;408;Bargteheide;ABAE;4;Bahnhofstr. 9;22941;Bargteheide;LVS Schleswig-Holstein Landesweite Verkehrsservicegesellschaft mbH;SH-Tarif;nein;ja;53.7281019717352;10.2689312447712
Hamburg;Hamburg;376;Bahrenfeld;ABAF;4;Hegarstr. 1;22761;Hamburg;Hamburger Verkehrsverbund GmbH;HVV;nein;ja;53.5600723108243;9.91109297825743
Hamburg;Hamburg;412;Barmbek;ABAP;4;Fuhlsbüttler Str. 91;22305;Hamburg;Hamburger Verkehrsverbund GmbH;HVV;nein;ja;53.5873185993071;10.0447023842541
Schleswig-Holstein;Schleswig-Holstein;929;Büchen;ABCH;3;Lauenburger Str.;21514;Büchen;LVS Schleswig-Holstein Landesweite Verkehrsservicegesellschaft mbH;SH-Tarif;ja;ja;53.4751988135128;10.6229111552238
Schleswig-Holstein;Schleswig-Holstein;470;Beldorf;ABE;7;Bahnhofsweg 1;25557;Beldorf;LVS Schleswig-Holstein Landesweite Verkehrsservicegesellschaft mbH;0;nein;ja;54.1252517730231;9.35637785542399
Niedersachsen;Hamburg;433;Bavendorf;ABF;7;An der Kreisstraße / OT Bavendorf;21401;Thomasburg;Landesnahverkehrsgesellschaft Niedersachsen mbH;HVV;nein;ja;53.1875283301584;10.6292474269867
Hamburg;Hamburg;2518;Hamburg-Bergedorf;ABG;3;Weidenbaumsweg 14;21029;Hamburg;Hamburger Verkehrsverbund GmbH;HVV;ja;ja;53.4896041588788;10.2059054374695
Schleswig-Holstein;Schleswig-Holstein;521;Beringstedt;ABGS;7;Am Bahnhof 7;25575;Beringstedt;LVS Schleswig-Holstein Landesweite Verkehrsservicegesellschaft mbH;0;nein;ja;54.1136809398786;9.53769473457385
Niedersachsen;Braunschweig;625;Bienenbüttel;ABIL;5;Bahnhofstr.1;29553;Bienenbüttel;Landesnahverkehrsgesellschaft Niedersachsen mbH;0;nein;ja;53.1423531825434;10.4842382669449
Niedersachsen;Bremen Hbf;941;Buchholz (Nordheide);ABLZ;3;Bahnhofstr. 1;21244;Buchholz i.d.Nordheide;Landesnahverkehrsgesellschaft Niedersachsen mbH;HVV;nein;ja;53.3245291682443;9.87567863294057
Schleswig-Holstein;Schleswig-Holstein;976;Burg (Dithm);ABR;6;Am Bahnhof 1;25712;Burg;LVS Schleswig-Holstein Landesweite Verkehrsservicegesellschaft mbH;0;nein;ja;54.0079430350472;9.24983528116554
Schleswig-Holstein;Schleswig-Holstein;8295;Bredenbek;ABRB;7;Rolfshömer Weg;24796;Bredenbek;LVS Schleswig-Holstein Landesweite Verkehrsservicegesellschaft mbH;;nein;nein;54.3150597971543;9.86709904212218
Schleswig-Holstein;Schleswig-Holstein;778;Bordesholm;ABRD;5;Mühlenstr. 2;24582;Bordesholm;LVS Schleswig-Holstein Landesweite Verkehrsservicegesellschaft mbH;0;nein;ja;54.1744311676635;10.0438597798347
Schleswig-Holstein;Schleswig-Holstein;895;Brokstedt;ABRS;6;Osterfeld 1;24616;Brokstedt;LVS Schleswig-Holstein Landesweite Verkehrsservicegesellschaft mbH;0;nein;ja;53.9904042833646;9.8244057203594
Schleswig-Holstein;Schleswig-Holstein;1008;Büsum;ABSM;6;Heider Str. 20;25761;Büsum;LVS Schleswig-Holstein Landesweite Verkehrsservicegesellschaft mbH;0;nein;ja;54.1339086822718;8.86698203085871
Schleswig-Holstein;Schleswig-Holstein;842;Bredstedt;ABST;4;Eisenbahnstr. 4;25821;Bredstedt;LVS Schleswig-Holstein Landesweite Verkehrsservicegesellschaft mbH;0;nein;ja;54.6212678623798;8.97024393081665
Hamburg;Hamburg;569;Berliner Tor;ABTS;3;Berliner Tordamm 10;22099;Hamburg;Hamburger Verkehrsverbund GmbH;HVV;nein;ja;53.5526749492171;10.0248500704765
Niedersachsen;Bremen Hbf;1006;Büsenbachtal;ABUS;7;Am Büsenbach 16l;21256;Handeloh-Wörme;Landesnahverkehrsgesellschaft Niedersachsen mbH;HVV;nein;ja;53.2696408343905;9.85862642526626
Niedersachsen;Braunschweig;253;Bad Bevensen;ABVS;5;Am Bahnhof 1;29549;Bad Bevensen;Landesnahverkehrsgesellschaft Niedersachsen mbH;0;ja;ja;53.0785010717666;10.5739164963912
Hamburg;Hamburg;644;Billwerder-Moorfleet;ABWM;5;Alter Landweg 44;22113;Hamburg;Hamburger Verkehrsverbund GmbH;HVV;nein;ja;53.5158687072034;10.0962924957275
Niedersachsen;Hamburg;1015;Buxtehude;ABX;3;Am Bundesbahnhof 1;21614;Buxtehude;Landesnahverkehrsgesellschaft Niedersachsen mbH;HVV;nein;ja;53.4705377829137;9.68748257528204
Niedersachsen;Bremen Hbf;1016;Cadenberge;ACD;6;Bahnhofstr. 41;21781;Cadenberge;Landesnahverkehrsgesellschaft Niedersachsen mbH;0;nein;ja;53.7679696659772;9.05846893787384
Niedersachsen;Bremen Hbf;1095;Cuxhaven;ACV;5;Am Bahnhof 1;27472;Cuxhaven;Landesnahverkehrsgesellschaft Niedersachsen mbH;0;nein;ja;53.8602675805384;8.7046436200271
Niedersachsen;Hamburg;1121;Dannenberg Ost;ADB;7;Am Bahnhof 1;29451;Dannenberg;Landesnahverkehrsgesellschaft Niedersachsen mbH;0;nein;ja;53.1049987575893;11.1175056298574
Hamburg;Hamburg;2513;Hamburg Dammtor;ADF;2;Dag-Hammarskjöld-Platz 15;20354;Hamburg;Hamburger Verkehrsverbund GmbH;HVV;ja;ja;53.5610880923059;9.98930007219314
Schleswig-Holstein;Schleswig-Holstein;1136;Dauenhof;ADH;6;Bahnhofstr. 23;25364;Westerhorn;LVS Schleswig-Holstein Landesweite Verkehrsservicegesellschaft mbH;HVV;nein;ja;53.8525698323152;9.68069464345522
Niedersachsen;Hamburg;1107;Dahlenburg;ADL;6;Bahnhofsweg 3;21368;Dahlenburg;Landesnahverkehrsgesellschaft Niedersachsen mbH;HVV;nein;ja;53.1693313574737;10.7089489009751
Niedersachsen;Bremen Hbf;1330;Dorum (Kr Cuxhaven);ADO;6;Bahnhofstr. 1;27632;Dorum;Landesnahverkehrsgesellschaft Niedersachsen mbH;0;nein;ja;53.6890620763342;8.57593059539796
Niedersachsen;Hamburg;1255;Dollern;ADR;6;Am Bahnhof 1;21739;Dollern;Landesnahverkehrsgesellschaft Niedersachsen mbH;HVV;nein;ja;53.545372572023;9.55806344747543
Hamburg;Hamburg;1193;Diebsteich;ADT;5;Plöner Stieg;22769;Hamburg;Hamburger Verkehrsverbund GmbH;HVV;nein;ja;53.5688778262138;9.93423146009444
Schleswig-Holstein;Schleswig-Holstein;1457;Eckernförde;AEC;5;Reeperbahn 54-58;24340;Eckernförde;LVS Schleswig-Holstein Landesweite Verkehrsservicegesellschaft mbH;0;nein;ja;54.4678615980143;9.83489513397216
Niedersachsen;Hamburg;1449;Echem;AECH;6;Dorfstraße;21379;Echem;Landesnahverkehrsgesellschaft Niedersachsen mbH;0;nein;ja;53.3369796621605;10.5372047424316
Schleswig-Holstein;Schleswig-Holstein;1521;Einfeld;AEF;6;Einfelder Schanze 3;24536;Neumünster;LVS Schleswig-Holstein Landesweite Verkehrsservicegesellschaft mbH;0;nein;ja;54.1299270366458;9.9984752306019
Hamburg;Hamburg;1542;Elbgaustraße;AEGS;4;Elbgaustr.  105;22523;Hamburg;Hamburger Verkehrsverbund GmbH;HVV;nein;ja;53.6027493949755;9.89331722259521
Schleswig-Holstein;Schleswig-Holstein;1558;Elmshorn;AEL;3;Holstenplatz 11;25335;Elmshorn;LVS Schleswig-Holstein Landesweite Verkehrsservicegesellschaft mbH;HVV;ja;ja;53.7540211346925;9.65936869382859
Hamburg;Hamburg;1511;Eidelstedt;AEST;3;Reichsbahnstr. 101;22525;Hamburg;Hamburger Verkehrsverbund GmbH;HVV;nein;ja;53.5956739069923;9.90737144763654
Schleswig-Holstein;Schleswig-Holstein;1736;Eutin;AEU;5;Elisabethstraße 20;23701;Eutin;LVS Schleswig-Holstein Landesweite Verkehrsservicegesellschaft mbH;SH-Tarif;nein;ja;54.1355954277104;10.6097120046616
Schleswig-Holstein;Schleswig-Holstein;1810;Flensburg;AF;3;Am Bundesbahnhof 5;24937;Flensburg;LVS Schleswig-Holstein Landesweite Verkehrsservicegesellschaft mbH;0;ja;ja;54.7740145403489;9.43680932950696
Hamburg;Hamburg;3229;Klein Flottbek;AFB;4;Jürgensallee 66;22609;Hamburg;Hamburger Verkehrsverbund GmbH;HVV;nein;ja;53.5581550523931;9.86090435701257
Hamburg;Hamburg;1941;Friedrichsberg;AFBG;4;Krausestr. 118;22049;Hamburg;Hamburger Verkehrsverbund GmbH;HVV;nein;ja;53.5764732500098;10.0574109149147
Schleswig-Holstein;Schleswig-Holstein;1953;Friedrichstadt;AFD;5;Bahnhofstr. 1 ;25840;Friedrichstadt;LVS Schleswig-Holstein Landesweite Verkehrsservicegesellschaft mbH;0;nein;ja;54.3781964235849;9.07901823520661
Schleswig-Holstein;Schleswig-Holstein;8009;Felde;AFEB;6;Dorfstr. 1;24242;Felde;LVS Schleswig-Holstein Landesweite Verkehrsservicegesellschaft mbH;0;nein;ja;54.3098394559284;9.94776248931885
Hamburg;Hamburg;8112;Fischbek;AFIB;6;Ohrnsweg 24;21149;Hamburg;Hamburger Verkehrsverbund GmbH;HVV;nein;ja;53.4747588082275;9.81944752805815
Schleswig-Holstein;Schleswig-Holstein;1747;Fahrenkrug;AFK;7;Wahlstedter Str.1a;23795;Fahrenkrug;LVS Schleswig-Holstein Landesweite Verkehrsservicegesellschaft mbH;SH-Tarif;nein;ja;53.9439817967534;10.253190414234
Schleswig-Holstein;Schleswig-Holstein;1918;Fresenburg;AFN;7;Schadehorn 1;23843;Bad Oldesloe;LVS Schleswig-Holstein Landesweite Verkehrsservicegesellschaft mbH;SH-Tarif;nein;ja;53.8421501486337;10.3907865633107
Schleswig-Holstein;Schleswig-Holstein;1950;Friedrichsruh;AFRD;7;L208 12 ;21521;Aumühle;LVS Schleswig-Holstein Landesweite Verkehrsservicegesellschaft mbH;SH-Tarif;nein;ja;53.5280696165487;10.3406953811645
Schleswig-Holstein;Schleswig-Holstein;1813;Flintbek;AFT;6;Kätnerskamp 1-3;24220;Flintbek;LVS Schleswig-Holstein Landesweite Verkehrsservicegesellschaft mbH;VRK;nein;ja;54.2430636051393;10.0626424786401
Schleswig-Holstein;Schleswig-Holstein;2012;Garding;AGD;7;Bahnhofstr. 11;25836;Garding;LVS Schleswig-Holstein Landesweite Verkehrsservicegesellschaft mbH;0;nein;ja;54.3270649994553;8.78427014901088
Schleswig-Holstein;Schleswig-Holstein;2112;Gettorf;AGF;6;Am Bahnhof;24214;Gettorf;LVS Schleswig-Holstein Landesweite Verkehrsservicegesellschaft mbH;0;nein;ja;54.4097990634387;9.97893290949719
Niedersachsen;Hamburg;2164;Göhrde;AGH;7;An der Kreisstraße / OT Göhrde;29473;Nahrendorf;Landesnahverkehrsgesellschaft Niedersachsen mbH;HVV;nein;ja;53.1677533898056;10.851114988327
Schleswig-Holstein;Schleswig-Holstein;2168;Gokels;AGK;7;Am Bahnhof 1;25557;Gokels;LVS Schleswig-Holstein Landesweite Verkehrsservicegesellschaft mbH;0;nein;ja;54.1187336709973;9.46991586166879
Schleswig-Holstein;Schleswig-Holstein;7678;Großenbrode;AGRO;7;Am Fliederhof 1;23775;Großenbrode;LVS Schleswig-Holstein Landesweite Verkehrsservicegesellschaft mbH;SH-Tarif;nein;ja;54.3661521373131;11.0805237293243
Schleswig-Holstein;Schleswig-Holstein;2151;Glückstadt;AGST;5;Bahnhofstr. 1-3;25348;Glückstadt;LVS Schleswig-Holstein Landesweite Verkehrsservicegesellschaft mbH;0;nein;ja;53.7884143687284;9.42875576424531
Hamburg;Hamburg;2514;Hamburg Hbf;AH;1;Hachmannplatz 16;20099;Hamburg;Hamburger Verkehrsverbund GmbH;HVV;ja;ja;53.5526795467633;10.006972665682
Schleswig-Holstein;Schleswig-Holstein;2554;Harblek;AHA;7;Harblek 10;25870; Oldenswort/ OT Harblek;LVS Schleswig-Holstein Landesweite Verkehrsservicegesellschaft mbH;0;nein;ja;54.3617423636327;8.96230253454747
Hamburg;Hamburg;2533;Hammerbrook;AHAB;4;Hammerbrookstraße 60;20097;Hamburg;Hamburger Verkehrsverbund GmbH;HVV;nein;ja;53.5467181909367;10.0235483050347
Schleswig-Holstein;Schleswig-Holstein;2453;Haffkrug;AHAF;6;Bahnhofstr.48;23683;Scharbeutz;LVS Schleswig-Holstein Landesweite Verkehrsservicegesellschaft mbH;SH-Tarif;ja;ja;54.0541399008066;10.7426332486303
Niedersachsen;Bremen Hbf;2529;Hammah;AHAM;6;Bahnhofstr. 4;21714;Hammah;Landesnahverkehrsgesellschaft Niedersachsen mbH;0;nein;ja;53.6123974505601;9.36748623847961
Niedersachsen;Bremen Hbf;2541;Handeloh;AHAN;6;Bahnhofstr. 1;21256;Handeloh;Landesnahverkehrsgesellschaft Niedersachsen mbH;HVV;nein;ja;53.2419651770526;9.84476866950077
Hamburg;Hamburg;2519;Hamburg-Harburg;AHAR;2;Hannoversche Str. 85;21079;Hamburg;Hamburger Verkehrsverbund GmbH;HVV;ja;ja;53.455310807152;9.99203324317933
Hamburg;Hamburg;2843;Hoheneichen;AHCH;4;Langwisch 15;22391;Hamburg;Hamburger Verkehrsverbund GmbH;HVV;nein;ja;53.6355283124124;10.0677359104156
Niedersachsen;Bremen Hbf;2683;Hemmoor;AHEM;6;An der Bahn 4;21745;Hemmoor;Landesnahverkehrsgesellschaft Niedersachsen mbH;0;nein;ja;53.6839442120615;9.16592717170715
Niedersachsen;Bremen Hbf;2615;Hechthausen;AHEN;6;Raifeisenstr. 1;21755;Hechthausen;Landesnahverkehrsgesellschaft Niedersachsen mbH;0;nein;ja;53.6386224661144;9.22823428389537
Niedersachsen;Bremen Hbf;2875;Holm-Seppensen;AHES;6;Bahnhofsweg 1;21244;Buchholz i.d. Nordheide;Landesnahverkehrsgesellschaft Niedersachsen mbH;HVV;nein;ja;53.2844859762389;9.86990110865008
Hamburg;Hamburg;2662;Heimfeld;AHFS;4;Heimfelder Str. 2;21075;Hamburg;Hamburger Verkehrsverbund GmbH;HVV;nein;ja;53.4654322820501;9.96313612460653
Schleswig-Holstein;Schleswig-Holstein;2625;Heide (Holst);AHI;3;Güterstraße 13;25746;Heide;LVS Schleswig-Holstein Landesweite Verkehrsservicegesellschaft mbH;0;ja;ja;54.1932212856565;9.10114288330078
Niedersachsen;Bremen Hbf;2795;Hittfeld;AHIF;6;Gustav-Becker-Str. 9;21218;Seevetal-Hittfeld;Landesnahverkehrsgesellschaft Niedersachsen mbH;HVV;nein;ja;53.4035834103081;9.97440256570515
Schleswig-Holstein;Hamburg;2509;Halstenbek;AHKS;4;Bahnhofsstr. 32;25469;Halstenbek;LVS Schleswig-Holstein Landesweite Verkehrsservicegesellschaft mbH;HVV;nein;ja;53.6303763743681;9.83908295631409
Schleswig-Holstein;Schleswig-Holstein;2953;Husum;AHM;3;Poggenburgstr. 12;25813;Husum;LVS Schleswig-Holstein Landesweite Verkehrsservicegesellschaft mbH;0;ja;ja;54.4720181636753;9.05613720417023
Schleswig-Holstein;Schleswig-Holstein;2449;Hademarschen;AHNU;7;Bismarckstr. 8;25557;Hanerau-Hademarschen;LVS Schleswig-Holstein Landesweite Verkehrsservicegesellschaft mbH;0;nein;ja;54.122765390529;9.41514015197755
Niedersachsen;Hamburg;2915;Horneburg;AHOG;5;Bahnhofstr. 1;21640;Horneburg;Landesnahverkehrsgesellschaft Niedersachsen mbH;HVV;nein;ja;53.5082904045094;9.57695245742798
Schleswig-Holstein;Schleswig-Holstein;7249;Horst (Holst);AHOT;6;Horstheider Weg 149;25358;Horst;LVS Schleswig-Holstein Landesweite Verkehrsservicegesellschaft mbH;HVV;nein;ja;53.8045000205724;9.64516997337341
Niedersachsen;Bremen Hbf;2773;Himmelpforten;AHPF;6;Am Bahnhof 1;21709;Himmelpforten;Landesnahverkehrsgesellschaft Niedersachsen mbH;0;nein;ja;53.6230959766708;9.31146362702625
Hamburg;Hamburg;2803;Hochkamp;AHPS;4;Reichskanzlerstr. 1;22609;Hamburg;Hamburger Verkehrsverbund GmbH;HVV;nein;ja;53.5612622751788;9.84222650527954
Hamburg;Hamburg;2556;Harburg Rathaus;AHRF;3;Harburger Ring 20;21079;Hamburg;Hamburger Verkehrsverbund GmbH;HVV;nein;ja;53.4606895675316;9.98039245605469
Hamburg;Hamburg;2581;Hasselbrook;AHSF;4;Hammer-Steindamm 58;22058;Hamburg;Hamburger Verkehrsverbund GmbH;HVV;nein;ja;53.5647165769856;10.0560799241066
Hamburg;Hamburg;2515;Holstenstraße;AHST;4;Stresemannstr. 156;22765;Hamburg;Hamburger Verkehrsverbund GmbH;HVV;nein;ja;53.561864475073;9.94909822940826
Schleswig-Holstein;Schleswig-Holstein;2864;Hohenwestedt;AHWT;6;Am Bahnhof 1;24594;Hohenwestedt;LVS Schleswig-Holstein Landesweite Verkehrsservicegesellschaft mbH;0;nein;ja;54.0865474443917;9.65416967868804
Niedersachsen;Hamburg;2796;Hitzacker;AHZ;7;Am Bahnhof 1;29456;Hitzacker;Landesnahverkehrsgesellschaft Niedersachsen mbH;0;nein;ja;53.1391722997002;11.0384094715119
Schleswig-Holstein;Schleswig-Holstein;7248;Herzhorn;AHZH;6;Am Deich;25379;Herzhorn;LVS Schleswig-Holstein Landesweite Verkehrsservicegesellschaft mbH;0;nein;ja;53.783479856865;9.48373317718506
Hamburg;Hamburg;3005;Iserbrook;AIS;6;Hasenhöhe 162;22589;Hamburg;Hamburger Verkehrsverbund GmbH;HVV;nein;ja;53.5764803273293;9.81431007385254
Schleswig-Holstein;Schleswig-Holstein;3016;Itzehoe;AIZ;3;Bahnhofstr. 32;25524;Itzehoe;LVS Schleswig-Holstein Landesweite Verkehrsservicegesellschaft mbH;0;ja;ja;53.9241589404442;9.51008485760232
Schleswig-Holstein;Schleswig-Holstein;3064;Jübek;AJ;6; Bahnhofstraße 2;24855;Jübek;LVS Schleswig-Holstein Landesweite Verkehrsservicegesellschaft mbH;0;nein;ja;54.5589078373307;9.4051694869995
Schleswig-Holstein;Schleswig-Holstein;3036;Jarrenwisch;AJHH;7;Jarrenwisch 1;25764;Oesterwurth/OTJarrenwisch;LVS Schleswig-Holstein Landesweite Verkehrsservicegesellschaft mbH;0;nein;ja;54.2120986499075;8.96314537525184
Hamburg;Hamburg;3068;Jungfernstieg;AJUS;4;Jungfernstieg 12;20095;Hamburg;Hamburger Verkehrsverbund GmbH;HVV;nein;ja;53.5522154181984;9.99380264156743
Schleswig-Holstein;Schleswig-Holstein;3174;Kiel Hbf;AK;2;Sophienblatt 25-27;24114;Kiel;LVS Schleswig-Holstein Landesweite Verkehrsservicegesellschaft mbH;VRK;ja;ja;54.3138684429718;10.1312506198883
Schleswig-Holstein;Schleswig-Holstein;3130;Katharinenheerd;AKAD;7;Bahnhofstr. 2a;25836;Katharinenheerd;LVS Schleswig-Holstein Landesweite Verkehrsservicegesellschaft mbH;0;nein;ja;54.3341725986513;8.83050513250054
Niedersachsen;Bremen Hbf;3224;Klecken;AKC;6;Bahnhofstraße 1;21224;Rosengarten;Landesnahverkehrsgesellschaft Niedersachsen mbH;HVV;nein;ja;53.366212050136;9.92890741874808
Schleswig-Holstein;Schleswig-Holstein;7252;Kiel-Elmschenhagen;AKE;6;Elmschenhagener Allee 10;24146;Kiel;LVS Schleswig-Holstein Landesweite Verkehrsservicegesellschaft mbH;SH-Tarif;nein;ja;54.2870803737293;10.1804548501969
Schleswig-Holstein;Schleswig-Holstein;8156;Kiel-Hassee CITTIPARK;AKH;6;Altenrade;24113;Kiel-Hassee;LVS Schleswig-Holstein Landesweite Verkehrsservicegesellschaft mbH;VRK;nein;ja;54.3106926084801;10.0985296708063
Schleswig-Holstein;Schleswig-Holstein;7255;Kremperheide;AKHD;6;Bockwischer Weg;25569;Krempermoor;LVS Schleswig-Holstein Landesweite Verkehrsservicegesellschaft mbH;0;nein;ja;53.8812062932582;9.48022842407227
Schleswig-Holstein;Schleswig-Holstein;3150;Keitum;AKI;4;Bahnhofstr. 37;25980;Sylt/ OT Keitum;LVS Schleswig-Holstein Landesweite Verkehrsservicegesellschaft mbH;0;nein;ja;54.8888309014475;8.3688747882843
Schleswig-Holstein;Schleswig-Holstein;3410;Krempe;AKM;6;Bahnhofstr. 118;25361;Krempe;LVS Schleswig-Holstein Landesweite Verkehrsservicegesellschaft mbH;0;nein;ja;53.8347015483417;9.48201656341553
Schleswig-Holstein;Schleswig-Holstein;7257;Kronshagen;AKRH;6;Bahnhofsweg 5;24119;Kronshagen;LVS Schleswig-Holstein Landesweite Verkehrsservicegesellschaft mbH;0;nein;nein;54.3310620233927;10.0832926979188
Schleswig-Holstein;Hamburg;3443;Krupunder;AKRS;4;Seestr. 163;25469;Halstenbek;LVS Schleswig-Holstein Landesweite Verkehrsservicegesellschaft mbH;HVV;nein;ja;53.6155797432628;9.86803519098382
Schleswig-Holstein;Schleswig-Holstein;7277;Kiel-Russee;AKRU;7;Köpenicker Straße 49;24111;Kiel;LVS Schleswig-Holstein Landesweite Verkehrsservicegesellschaft mbH;;nein;nein;54.3100176694926;10.0702548027039
Hamburg;Hamburg;3357;Königstraße;AKS;4;Königstr. 20;22767;Hamburg;Hamburger Verkehrsverbund GmbH;HVV;nein;ja;53.5478158870179;9.94415891797918
Schleswig-Holstein;Schleswig-Holstein;3131;Kating;AKTO;7;Hochbohmer Chaussee 5;25832;Tönning/ OT Kating;LVS Schleswig-Holstein Landesweite Verkehrsservicegesellschaft mbH;0;nein;ja;54.3260947711892;8.87193112134049
Schleswig-Holstein;Schleswig-Holstein;3465;Kupfermühle;AKUP;6;In de Butz 1;22967;Tremsbüttel;LVS Schleswig-Holstein Landesweite Verkehrsservicegesellschaft mbH;SH-Tarif;nein;ja;53.7622599486426;10.3265082836151
Hamburg;Hamburg;3378;Kornweg (Klein Borstel);AKWS;6;Tornberg 33;22337;Hamburg;Hamburger Verkehrsverbund GmbH;HVV;nein;ja;53.6324237305505;10.0541071377604
Schleswig-Holstein;Schleswig-Holstein;3218;Klanxbüll;AKX;5;Bahnhofstr. 3;25924;Klanxbüll;LVS Schleswig-Holstein Landesweite Verkehrsservicegesellschaft mbH;0;nein;ja;54.8620611007138;8.67647409439087
Schleswig-Holstein;Schleswig-Holstein;3807;Lübeck Hbf;AL;2;Am Bahnhof 6;23558;Lübeck;LVS Schleswig-Holstein Landesweite Verkehrsservicegesellschaft mbH;SH-Tarif;ja;ja;53.8674846700379;10.66969871521
Hamburg;Hamburg;3518;Landwehr;ALAN;4;Hasselbrookstr. 4;22087;Hamburg;Hamburger Verkehrsverbund GmbH;HVV;nein;ja;53.5612609894927;10.0381501097428
Hamburg;Hamburg;3517;Landungsbrücken;ALAS;4;Helgoländer Allee;20459;Hamburg;Hamburger Verkehrsverbund GmbH;HVV;nein;ja;53.5462257408139;9.97113704681396
Schleswig-Holstein;Schleswig-Holstein;3581;Lauenburg (Elbe);ALAU;6;Alter Bahnhof 1;21481;Lauenburg/Elbe;LVS Schleswig-Holstein Landesweite Verkehrsservicegesellschaft mbH;SH-Tarif;nein;ja;53.3696832902346;10.5681824684143
Schleswig-Holstein;Schleswig-Holstein;3808;Lübeck-Flughafen;ALB;6;Wulfsdorfer Weg 1;23562;Lübeck;LVS Schleswig-Holstein Landesweite Verkehrsservicegesellschaft mbH;;nein;ja;53.8041035532741;10.6974167809912
Niedersachsen;Hamburg;3855;Lüneburg;ALBG;2;Bahnhofstr. 10;21337;Lüneburg;Landesnahverkehrsgesellschaft Niedersachsen mbH;HVV;ja;ja;53.2497227851439;10.4195071680017
Schleswig-Holstein;Schleswig-Holstein;8300;Lübeck Dänischburg IKEA;ALD;5;;;;LVS Schleswig-Holstein Landesweite Verkehrsservicegesellschaft mbH;;nein;nein;53.9110165320888;10.7340721289316
Niedersachsen;Hamburg;3652;Leitstade;ALE;7;Leitstade Bahnhof 1;29456;Hitzacker OT Leitstade;Landesnahverkehrsgesellschaft Niedersachsen mbH;0;nein;ja;53.1692554484787;10.9124987775629
Schleswig-Holstein;Schleswig-Holstein;3542;Langenhorn (Schlesw);ALG;5;Bahnweg 1;25842;Langenhorn;LVS Schleswig-Holstein Landesweite Verkehrsservicegesellschaft mbH;0;nein;ja;54.6858652617988;8.94636154174805
Schleswig-Holstein;Schleswig-Holstein;8266;Lübeck Hochschulstadtteil;ALHS;6;Schärenweg;23552;Lübeck;LVS Schleswig-Holstein Landesweite Verkehrsservicegesellschaft mbH;;nein;nein;53.8305461720457;10.6890246115619
Schleswig-Holstein;Schleswig-Holstein;3810;Lübeck-Kücknitz;ALKN;6;Elbingstr.24 ;23569;Lübeck;LVS Schleswig-Holstein Landesweite Verkehrsservicegesellschaft mbH;SH-Tarif;nein;ja;53.9244672131923;10.8181434913273
Schleswig-Holstein;Schleswig-Holstein;3666;Lensahn;ALS;7;Am Bahnhof 2;23738;Lensahn;LVS Schleswig-Holstein Landesweite Verkehrsservicegesellschaft mbH;;nein;ja;54.2193083994429;10.8904767036438
Schleswig-Holstein;Schleswig-Holstein;2596;Lübeck-St.Jürgen;ALSJ;6;Mönkhofer Weg 199;23564;Lübeck;LVS Schleswig-Holstein Landesweite Verkehrsservicegesellschaft mbH;SH-Tarif;nein;ja;53.8422994341817;10.7029473781586
Hamburg;Hamburg;3537;Langenfelde;ALST;4;Försterweg 75;22525;Hamburg;Hamburger Verkehrsverbund GmbH;HVV;nein;ja;53.5797332705264;9.93086814880372
Schleswig-Holstein;Schleswig-Holstein;3812;Lübeck-Travemünde Hafen;ALTH;6;Vogteistr. 13;23570;Lübeck;LVS Schleswig-Holstein Landesweite Verkehrsservicegesellschaft mbH;SH-Tarif;nein;ja;53.9586615496567;10.8652520151699
Schleswig-Holstein;Schleswig-Holstein;3813;Lübeck-Travemünde Skandinavienkai;ALTK;6;Ivendorfer Landstr.7;23570;Lübeck;LVS Schleswig-Holstein Landesweite Verkehrsservicegesellschaft mbH;SH-Tarif;nein;ja;53.950968083491;10.8539056777954
Schleswig-Holstein;Schleswig-Holstein;3814;Lübeck-Travemünde Strand;ALTS;6;Bertlingstr. 21;23570;Lübeck;LVS Schleswig-Holstein Landesweite Verkehrsservicegesellschaft mbH;SH-Tarif;nein;ja;53.9646954407655;10.8754777908325
Schleswig-Holstein;Schleswig-Holstein;3854;Lunden;ALU;5;Nordbahnhofstr. 29;25774;Lunden;LVS Schleswig-Holstein Landesweite Verkehrsservicegesellschaft mbH;0;nein;ja;54.3309543559878;9.0306744468746
Niedersachsen;Bremen Hbf;3580;Lauenbrück;ALUB;5;Bahnhofstr. 106;27389;Lauenbrück;Landesnahverkehrsgesellschaft Niedersachsen mbH;0;nein;ja;53.1970554586832;9.56387208601629
Niedersachsen;Hamburg;3996;Maschen;AMA;5;Hörstener Str. / Ortsteil Maschen;21218;Seevetal;Landesnahverkehrsgesellschaft Niedersachsen mbH;HVV;nein;ja;53.4031420473604;10.066554248333
Schleswig-Holstein;Schleswig-Holstein;3913;Bad Malente-Gremsmühlen;AMAG;5;Bahnhofstr. 2;23714;Bad Malente-Gremsmühlen;LVS Schleswig-Holstein Landesweite Verkehrsservicegesellschaft mbH;SH-Tarif;nein;ja;54.1669490127438;10.5515708139733
Niedersachsen;Hamburg;4014;Meckelfeld;AMD;5;An der K 29 / Ortsteil Meckelfeld;21218;Seevetal;Landesnahverkehrsgesellschaft Niedersachsen mbH;HVV;nein;ja;53.4246605976822;10.0291621685028
Schleswig-Holstein;Schleswig-Holstein;7267;Melsdorf;AME;7;Bahnhofstraße;24109;Melsdorf;LVS Schleswig-Holstein Landesweite Verkehrsservicegesellschaft mbH;;nein;nein;54.3127955415507;10.0307048651484
Schleswig-Holstein;Schleswig-Holstein;4042;Meldorf;AMF;5;Am Bahnhof 5;25704;Meldorf;LVS Schleswig-Holstein Landesweite Verkehrsservicegesellschaft mbH;0;nein;ja;54.0878117455654;9.08008779798234
Hamburg;Hamburg;4139;Mittlerer Landweg;AML;4;Mittlerer Landweg 63;21033;Hamburg;Hamburger Verkehrsverbund GmbH;HVV;nein;ja;53.4981388639341;10.1309967041016
Schleswig-Holstein;Schleswig-Holstein;4159;Mölln (Lauenburg);AMLN;5;Grambeker Weg 1;23879;Mölln;LVS Schleswig-Holstein Landesweite Verkehrsservicegesellschaft mbH;SH-Tarif;nein;ja;53.6244953007045;10.6830251169777
Schleswig-Holstein;Schleswig-Holstein;4181;Morsum (Sylt);AMM;5;Bahnhofstr. 11;25980;Sylt/ OT Morsum;LVS Schleswig-Holstein Landesweite Verkehrsservicegesellschaft mbH;0;nein;ja;54.8721728537751;8.43311458826065
Schleswig-Holstein;Schleswig-Holstein;4289;Müssen;AMUE;6;Bergstr. 16;21516;Müssen;LVS Schleswig-Holstein Landesweite Verkehrsservicegesellschaft mbH;SH-Tarif;nein;ja;53.499481197655;10.5613803863525
Schleswig-Holstein;Schleswig-Holstein;4420;Neumünster;AN;2;Konrad-Adenauer-Platz 2;24534;Neumünster;LVS Schleswig-Holstein Landesweite Verkehrsservicegesellschaft mbH;0;ja;ja;54.0761296923224;9.98015342515989
Schleswig-Holstein;Schleswig-Holstein;4472;Niebüll;ANB;3;Bahnhofstr. 1;25899;Niebüll;LVS Schleswig-Holstein Landesweite Verkehrsservicegesellschaft mbH;0;ja;ja;54.7894649120656;8.83438110351562
Niedersachsen;Hamburg;4327;Neetzendorf;ANEZ;7;Neetzendorf;21368;Boitze;Landesnahverkehrsgesellschaft Niedersachsen mbH;HVV;nein;ja;53.1637324440766;10.7604381016322
Schleswig-Holstein;Schleswig-Holstein;4588;Nortorf;ANF;6;Bahnhofstr. 19;24589;Nortorf;LVS Schleswig-Holstein Landesweite Verkehrsservicegesellschaft mbH;0;nein;ja;54.1664226038667;9.85295534133911
Schleswig-Holstein;Schleswig-Holstein;4575;Nordhastedt;ANH;7;Bahnhofstraße 1;25785;Nordhastedt;LVS Schleswig-Holstein Landesweite Verkehrsservicegesellschaft mbH;0;nein;ja;54.1689130333957;9.18048337886209
Niedersachsen;Hamburg;4411;Neukloster (Kr Stade);ANL;6;Jorker Straße 10;21614;Buxtehude;Landesnahverkehrsgesellschaft Niedersachsen mbH;HVV;nein;ja;53.4811394376052;9.63992739424985
Hamburg;Hamburg;2520;Hamburg-Neugraben;ANR;3;Am Neugrabener Bahnhof  1;21149;Hamburg;Hamburger Verkehrsverbund GmbH;HVV;nein;ja;53.4740760168846;9.85280513763428
Schleswig-Holstein;Schleswig-Holstein;8063;Neumünster Stadtwald;ANSW;7;Forstweg/ Hansaring;24534;Neumünster;LVS Schleswig-Holstein Landesweite Verkehrsservicegesellschaft mbH;;nein;ja;54.0834049542114;9.96285080909729
Schleswig-Holstein;Schleswig-Holstein;4447;Neustadt (Holst);ANT;6;Bahnhofstr. 16;23730;Neustadt in Holstein;LVS Schleswig-Holstein Landesweite Verkehrsservicegesellschaft mbH;0;nein;ja;54.1040009241481;10.8085405826569
Hamburg;Hamburg;4345;Nettelnburg;ANTB;4;Edith-Stein-Platz 1;21035;Hamburg;Hamburger Verkehrsverbund GmbH;HVV;nein;ja;53.4879237163643;10.1812836527824
Niedersachsen;Hamburg;4359;Neu Wulmstorf;ANWF;6;Bahnhofstr. 88;21649;Neu Wulmstorf;Landesnahverkehrsgesellschaft Niedersachsen mbH;HVV;nein;ja;53.4730363099945;9.7882237733647
Hamburg;Hamburg;4465;Neuwiedenthal;ANWS;4;Rehrstieg 1;21147;Hamburg;Hamburger Verkehrsverbund GmbH;HVV;nein;ja;53.4729737867573;9.87755158435903
Niedersachsen;Bremen Hbf;4579;Nordholz;ANZ;6;Bahnhofstr. 5;27637;Nordholz;Landesnahverkehrsgesellschaft Niedersachsen mbH;0;nein;ja;53.7786112167391;8.62129211425782
Schleswig-Holstein;Schleswig-Holstein;317;Bad Oldesloe;AO;2;Käthe-Kollwitz-Str. 8;23843;Bad Oldesloe;LVS Schleswig-Holstein Landesweite Verkehrsservicegesellschaft mbH;SH-Tarif;nein;ja;53.8051937883689;10.3825950622559
Niedersachsen;Bremen Hbf;4830;Ottersberg (Han);AOBG;5;Am Bahnhof 2;28870;Ottersberg;Landesnahverkehrsgesellschaft Niedersachsen mbH;VBN;nein;ja;53.0969038478188;9.13376569747925
Schleswig-Holstein;Schleswig-Holstein;4801;Osterstedt;AODT;7;Bahnhofstraße;25590;Osterstedt;LVS Schleswig-Holstein Landesweite Verkehrsservicegesellschaft mbH;0;nein;ja;54.1022275925635;9.57542480649174
Niedersachsen;Bremen Hbf;4829;Otterndorf;AOF;6;Am Bahnhof 1;21762;Otterndorf;Landesnahverkehrsgesellschaft Niedersachsen mbH;0;nein;ja;53.8059726553883;8.89375477067884
Hamburg;Hamburg;4817;Othmarschen;AOH;4;Statthalterplatz 2;22607;Hamburg;Hamburger Verkehrsverbund GmbH;HVV;nein;ja;53.5591433555508;9.8852813243866
Schleswig-Holstein;Schleswig-Holstein;4764;Oldenburg (Holst);AOL;6;Bahnhofstr. 23;23758;Oldenburg in Holstein;LVS Schleswig-Holstein Landesweite Verkehrsservicegesellschaft mbH;SH-Tarif;ja;ja;54.2838634251495;10.8828059678476
Hamburg;Hamburg;4751;Ohlsdorf;AOP;4;Fühlsbüttelstr. 761;22335;Hamburg;Hamburger Verkehrsverbund GmbH;HVV;nein;ja;53.6206581855336;10.0315171480179
Schleswig-Holstein;Schleswig-Holstein;4843;Owschlag;AOS;5;Bahnhofstr. 1;24811;Owschlag;LVS Schleswig-Holstein Landesweite Verkehrsservicegesellschaft mbH;0;nein;ja;54.3923741865632;9.59072317395891
Hamburg;Hamburg;6529;Hamburg-Tonndorf;AOW;4;Sonnenweg 6;22045;Hamburg;Hamburger Verkehrsverbund GmbH;HVV;nein;ja;53.5864379603001;10.1231145858765
Schleswig-Holstein;Hamburg;4935;Pinneberg;AP;3;Bahnhofstr. 3;25421;Pinneberg;LVS Schleswig-Holstein Landesweite Verkehrsservicegesellschaft mbH;HVV;nein;ja;53.6552491501875;9.79730343809934
Hamburg;Hamburg;4993;Poppenbüttel;APB;5;Stormarnplatz 1;22045;Hamburg;Hamburger Verkehrsverbund GmbH;HVV;nein;ja;53.652167051914;10.0940222274355
Schleswig-Holstein;Schleswig-Holstein;5039;Prisdorf;APD;5;Bahnhofstr. 1;24597;Prisdorf;LVS Schleswig-Holstein Landesweite Verkehrsservicegesellschaft mbH;HVV;nein;ja;53.6752711201783;9.76017773151398
Schleswig-Holstein;Schleswig-Holstein;4855;Pansdorf;APF;6;Am Bahnhof 1;23689;Ratekau;LVS Schleswig-Holstein Landesweite Verkehrsservicegesellschaft mbH;SH-Tarif;nein;ja;53.9808773416789;10.7031860947609
Schleswig-Holstein;Schleswig-Holstein;4968;Plön;APLN;6;Bahnhofstr. 14;24306;Plön;LVS Schleswig-Holstein Landesweite Verkehrsservicegesellschaft mbH;SH-Tarif;nein;ja;54.1594982540042;10.4226458072662
Schleswig-Holstein;Schleswig-Holstein;4992;Pönitz (Holst);APN;6;Bahnhofstr. 2 ;23684;Scharbeutz;LVS Schleswig-Holstein Landesweite Verkehrsservicegesellschaft mbH;SH-Tarif;nein;ja;54.0456653162697;10.6711820498841
Schleswig-Holstein;Schleswig-Holstein;350;Bad St Peter-Ording;APO;6;Am Kurpark 2;25826;Sankt Peter-Ording;LVS Schleswig-Holstein Landesweite Verkehrsservicegesellschaft mbH;0;nein;ja;54.3173254812665;8.61473453672308
Schleswig-Holstein;Schleswig-Holstein;349;Bad St Peter Süd;APSD;7;Am Bahnhof 1a;25826;Sankt Peter-Ording;LVS Schleswig-Holstein Landesweite Verkehrsservicegesellschaft mbH;0;nein;ja;54.3050117481041;8.6481213569641
Schleswig-Holstein;Schleswig-Holstein;5063;Puttgarden;APU;6;Am Fährbahnhof 1;23769;Fehmarn;LVS Schleswig-Holstein Landesweite Verkehrsservicegesellschaft mbH;SH-Tarif;ja;ja;54.4997217960304;11.2259479330367
Schleswig-Holstein;Schleswig-Holstein;5020;Preetz;APZ;5;Bahnhofstr. 26;24211;Preetz;LVS Schleswig-Holstein Landesweite Verkehrsservicegesellschaft mbH;SH-Tarif;nein;ja;54.2337692725559;10.2759397029877
Schleswig-Holstein;Schleswig-Holstein;5223;Rendsburg;AR;4;Am Bahnhof 20;24768;Rendsburg;LVS Schleswig-Holstein Landesweite Verkehrsservicegesellschaft mbH;0;ja;ja;54.3023772657168;9.6708869934082
Hamburg;Hamburg;2521;Hamburg-Rahlstedt;ARAL;4;Rahlstedter Bahnhofstr. 4;22143;Hamburg;Hamburger Verkehrsverbund GmbH;HVV;nein;ja;53.6051485047613;10.1549419334956
Schleswig-Holstein;Hamburg;5200;Reinbek;ARBK;5;Sophienstr. 11;21465;Reinbek;LVS Schleswig-Holstein Landesweite Verkehrsservicegesellschaft mbH;HVV;nein;ja;53.508395017091;10.2530142815574
Schleswig-Holstein;Schleswig-Holstein;5201;Reinfeld (Holst);ARD;5;Bahnhofstr. 21;23858;Reinfeld (Holstein);LVS Schleswig-Holstein Landesweite Verkehrsservicegesellschaft mbH;SH-Tarif;nein;ja;53.8304509423438;10.4946327209473
Schleswig-Holstein;Schleswig-Holstein;5205;Reinsbüttel;ARE;7;Dorfstr. 23;25764;Reinsbüttel;LVS Schleswig-Holstein Landesweite Verkehrsservicegesellschaft mbH;0;nein;ja;54.1812056674688;8.90666514917335
Hamburg;Hamburg;5167;Reeperbahn;ARES;4;Reeperbahn 155;20359;Hamburg;Hamburger Verkehrsverbund GmbH;HVV;nein;ja;53.5496270890103;9.95755610669535
Schleswig-Holstein;Schleswig-Holstein;5139;Ratzeburg;ARF;5;Bahnhofstr. 1;23909;Ratzeburg;LVS Schleswig-Holstein Landesweite Verkehrsservicegesellschaft mbH;SH-Tarif;nein;ja;53.6979980510584;10.7407638430595
Niedersachsen;Hamburg;5081;Radbruch;ARH;6;Schäfer-Ast-Straße;21449;Radbruch;Landesnahverkehrsgesellschaft Niedersachsen mbH;HVV;nein;ja;53.3179968675149;10.2891737222671
Hamburg;Hamburg;5291;Rissen;ARI;5;Am Rissener Bahnhof 1;22559;Hamburg;Hamburger Verkehrsverbund GmbH;HVV;nein;ja;53.5831811480727;9.75733284308359
Schleswig-Holstein;Schleswig-Holstein;4815;Rickling;ARL;6;Bahnhofstr. 4;24635;Rickling;LVS Schleswig-Holstein Landesweite Verkehrsservicegesellschaft mbH;SH-Tarif;nein;ja;53.9990668492878;10.1683473587036
Niedersachsen;Bremen Hbf;5380;Rotenburg (Wümme);AROG;4;Am Bahnhof 8;27356;Rotenburg ;Landesnahverkehrsgesellschaft Niedersachsen mbH;VBN;nein;ja;53.1124825741209;9.39085997067965
Hamburg;Hamburg;5394;Rothenburgsort;AROP;5;Billhorner Deich 77;20539;Hamburg;Hamburger Verkehrsverbund GmbH;HVV;nein;ja;53.5383435116479;10.0442368709124
Hamburg;Hamburg;5408;Rübenkamp;ARP;4;Rübenkamp 227;22307;Hamburg;Hamburger Verkehrsverbund GmbH;HVV;nein;ja;53.605854336243;10.0331026750478
Schleswig-Holstein;Schleswig-Holstein;5103;Raisdorf;ARS;5;Bahnhofstr. 19;24223;Schwentinental;LVS Schleswig-Holstein Landesweite Verkehrsservicegesellschaft mbH;SH-Tarif;nein;ja;54.2803599672962;10.2441358566284
Schleswig-Holstein;Schleswig-Holstein;5278;Rieseby;ARY;6;Eckernförder Landstr. 1;24354;Rieseby;LVS Schleswig-Holstein Landesweite Verkehrsservicegesellschaft mbH;0;nein;ja;54.5417214429027;9.82053126607623
Niedersachsen;Bremen Hbf;5913;Sottrum;AS;5;Am Bahnhof 12;27367;Sottrum;Landesnahverkehrsgesellschaft Niedersachsen mbH;VBN;nein;ja;53.1013012369213;9.25018811610438
Niedersachsen;Bremen Hbf;5470;Sagehorn;ASAG;6;Zum Bahnhof 17;28876;Oyten-Sagehorn;Landesnahverkehrsgesellschaft Niedersachsen mbH;VBN;nein;ja;53.0842858784934;9.02326047420502
Schleswig-Holstein;Schleswig-Holstein;5541;Scharbeutz;ASAZ;5;Bahnhofstr.20;23683;Scharbeutz;LVS Schleswig-Holstein Landesweite Verkehrsservicegesellschaft mbH;SH-Tarif;ja;ja;54.0187839550143;10.7458428671544
Schleswig-Holstein;Schleswig-Holstein;345;Bad Segeberg;ASB;6;An der B206 16;23795;Bad Segeberg;LVS Schleswig-Holstein Landesweite Verkehrsservicegesellschaft mbH;SH-Tarif;nein;ja;53.9338918792579;10.3078311681747
Schleswig-Holstein;Schleswig-Holstein;7282;Schülldorf;ASC;7;Am Bahnhof;24790;Schülldorf;LVS Schleswig-Holstein Landesweite Verkehrsservicegesellschaft mbH;;nein;nein;54.2987429683701;9.74737286567688
Schleswig-Holstein;Schleswig-Holstein;343;Bad Schwartau;ASCH;5;Bahnhofstr. 32;23611;Bad Schwartau;LVS Schleswig-Holstein Landesweite Verkehrsservicegesellschaft mbH;SH-Tarif;nein;ja;53.9163604873337;10.7027692541363
Schleswig-Holstein;Schleswig-Holstein;5949;St. Michaelisdonn;ASD;5;Bahnhofstr. 26;25693;St. Michaelisdonn;LVS Schleswig-Holstein Landesweite Verkehrsservicegesellschaft mbH;0;nein;ja;53.989798573269;9.11777930013065
Schleswig-Holstein;Schleswig-Holstein;6096;Süderdeich;ASDD;7;Bahnhofstr. 16;25764;Süderdeich;LVS Schleswig-Holstein Landesweite Verkehrsservicegesellschaft mbH;0;nein;ja;54.1981791467175;8.91126894950866
Hamburg;Hamburg;6105;Sülldorf;ASDF;5;Sülldorfer Kirchenweg;22589;Hamburg;Hamburger Verkehrsverbund GmbH;HVV;nein;ja;53.5811015646477;9.7974443435669
Niedersachsen;Bremen Hbf;5629;Schneverdingen;ASDN;6;Am Bahnhof 11;29640;Schneverdingen;Landesnahverkehrsgesellschaft Niedersachsen mbH;0;nein;ja;53.1112698666252;9.79873259862264
Schleswig-Holstein;Schleswig-Holstein;5504;Sandwehle;ASDW;7;Sandwehle 17;25836;Garding/ OT Sandwehle;LVS Schleswig-Holstein Landesweite Verkehrsservicegesellschaft mbH;0;nein;ja;54.3257523467022;8.75861280437465
Hamburg;Hamburg;5955;Stadthausbrücke;ASHS;4;Stadthausbrücke 8;20355;Hamburg;Hamburger Verkehrsverbund GmbH;HVV;nein;ja;53.5494737579036;9.98502176383446
Schleswig-Holstein;Schleswig-Holstein;5846;Sierksdorf;ASID;6;Bahnhofsweg;23730;Sierksdorf;LVS Schleswig-Holstein Landesweite Verkehrsservicegesellschaft mbH;SH-Tarif;ja;ja;54.0683877828825;10.7685736247471
Niedersachsen;Bremen Hbf;5552;Scheeßel;ASL;5;Am Bahnhof 6;27383;Scheeßel;Landesnahverkehrsgesellschaft Niedersachsen mbH;VBN;nein;ja;53.1657916886647;9.49690818786621
Schleswig-Holstein;Schleswig-Holstein;5912;Sörup;ASOE;6;Bahnhofstr. 1;24966;Sörup;LVS Schleswig-Holstein Landesweite Verkehrsservicegesellschaft mbH;0;nein;ja;54.7165832166003;9.66995716094971
Niedersachsen;Bremen Hbf;5893;Soltau (Han) Nord;ASON;7;Winsener Str. 113;29614;Soltau;Landesnahverkehrsgesellschaft Niedersachsen mbH;0;nein;ja;53.0018083064988;9.86115690751285
Niedersachsen;Bremen Hbf;5935;Sprötze;ASP;5;Sprötzer Bahnhofstr. 1;21244;Buchholz i.d.Nordheide;Landesnahverkehrsgesellschaft Niedersachsen mbH;HVV;nein;ja;53.3095445378531;9.81237888336182
Niedersachsen;Hamburg;5950;Stade;AST;4;Am Bahnhof 2;21680;Stade;Landesnahverkehrsgesellschaft Niedersachsen mbH;HVV;nein;ja;53.596053660329;9.47760879993438
Niedersachsen;Hamburg;6008;Stelle;ASTE;5;Uhlenhorst 18;21435;Stelle;Landesnahverkehrsgesellschaft Niedersachsen mbH;HVV;nein;ja;53.3874525198388;10.1094804360316
Hamburg;Hamburg;2797;Stellingen;ASTS;4;Volksparkstr. 69;22525;Hamburg;Hamburger Verkehrsverbund GmbH;HVV;nein;ja;53.5896571311067;9.91855925176202
Hamburg;Hamburg;2516;Sternschanze;ASTZ;3;Sternschanze 1;20357;Hamburg;Hamburger Verkehrsverbund GmbH;HVV;nein;ja;53.563817268573;9.9676121377945
Schleswig-Holstein;Schleswig-Holstein;7289;Suchsdorf;ASU;6;Am Bahnhof 3;24107;Kiel;LVS Schleswig-Holstein Landesweite Verkehrsservicegesellschaft mbH;VRK;nein;ja;54.3490592926906;10.0908637046814
Schleswig-Holstein;Schleswig-Holstein;6094;Süderbrarup;ASUE;6;Bahnhofstr. 15;24392;Süderbrarup;LVS Schleswig-Holstein Landesweite Verkehrsservicegesellschaft mbH;0;nein;ja;54.637046573483;9.77098539267502
Niedersachsen;Bremen Hbf;6098;Suerhop;ASUP;7;Drosselweg 35;21244;Buchholz;Landesnahverkehrsgesellschaft Niedersachsen mbH;HVV;nein;ja;53.3157647263326;9.85546874973807
Schleswig-Holstein;Schleswig-Holstein;5588;Schleswig;ASW;5;Bahnhofstr. 29;24837;Schleswig;LVS Schleswig-Holstein Landesweite Verkehrsservicegesellschaft mbH;0;ja;ja;54.4995815643059;9.53789425551667
Schleswig-Holstein;Schleswig-Holstein;5726;Schwarzenbek;ASWA;5;Ladestr.1;21493;Schwarzenbek;LVS Schleswig-Holstein Landesweite Verkehrsservicegesellschaft mbH;SH-Tarif;nein;ja;53.5036879901448;10.4851263953794
Schleswig-Holstein;Schleswig-Holstein;6150;Tating;ATAT;7;Ladestr. 1;25881;Tating;LVS Schleswig-Holstein Landesweite Verkehrsservicegesellschaft mbH;0;nein;ja;54.322841826248;8.7095227453016
Schleswig-Holstein;Schleswig-Holstein;6209;Tiebensee;ATB;7;Wesselburener Str. 3;25792;Neuenkirchen/OT Tiebensee;LVS Schleswig-Holstein Landesweite Verkehrsservicegesellschaft mbH;0;nein;ja;54.219415289701;9.01937447621334
Schleswig-Holstein;Schleswig-Holstein;6225;Tönning;ATG;6;Am Bahnhof 2;25832;Tönning;LVS Schleswig-Holstein Landesweite Verkehrsservicegesellschaft mbH;0;nein;ja;54.3138352533657;8.93818706274032
Schleswig-Holstein;Hamburg;6197;Thesdorf;ATHS;4;Thesdorfer Weg 220;25421;Pinneberg;LVS Schleswig-Holstein Landesweite Verkehrsservicegesellschaft mbH;HVV;nein;ja;53.6444265475346;9.81386046171993
Schleswig-Holstein;Schleswig-Holstein;6218;Timmendorferstrand;ATIM;5;Am Bahnhof 6a;23669;Timmendorfer Strand;LVS Schleswig-Holstein Landesweite Verkehrsservicegesellschaft mbH;SH-Tarif;ja;ja;53.9943001530414;10.762228667736
Hamburg;Hamburg;6215;Tiefstack;ATK;5;Ausschläger Allee 140;20539;Hamburg;Hamburger Verkehrsverbund GmbH;HVV;nein;ja;53.5312706614362;10.0655168294907
Schleswig-Holstein;Schleswig-Holstein;6230;Tornesch;ATM;4;Bahnhofsplatz 8;25436;Tornesch;LVS Schleswig-Holstein Landesweite Verkehrsservicegesellschaft mbH;HVV;nein;ja;53.6970029245498;9.71528835066698
Schleswig-Holstein;Schleswig-Holstein;6148;Tarp;ATP;6;Am Bahnhof 1;24963;Tarp;LVS Schleswig-Holstein Landesweite Verkehrsservicegesellschaft mbH;0;ja;ja;54.6644211291877;9.39826311342178
Niedersachsen;Bremen Hbf;6231;Tostedt;ATST;4;Am Bahnhof 4;21255;Tostedt;Landesnahverkehrsgesellschaft Niedersachsen mbH;HVV;nein;ja;53.2717064864759;9.73136901855468
Niedersachsen;Hamburg;6394;Vastorf;AVF;7;Bahnhofstr. 29;21397;Vastorf;Landesnahverkehrsgesellschaft Niedersachsen mbH;HVV;nein;ja;53.1994097473606;10.5538916153083
Hamburg;Hamburg;6399;Veddel;AVLS;4;Wilhelmsburger Platz 10;21109;Hamburg;Hamburger Verkehrsverbund GmbH;HVV;nein;ja;53.5214639065822;10.0132111856201
Schleswig-Holstein;Schleswig-Holstein;6554;Wasbek;AWA;7;Bahnhofstr. 1;24647;Wasbek;LVS Schleswig-Holstein Landesweite Verkehrsservicegesellschaft mbH;0;nein;ja;54.0756102502962;9.89813218445704
Schleswig-Holstein;Schleswig-Holstein;6490;Wahlstedt;AWAH;7; Am Flugplatz 2;23812;Wahlstedt;LVS Schleswig-Holstein Landesweite Verkehrsservicegesellschaft mbH;SH-Tarif;nein;ja;53.9612035728362;10.2296939778582
Hamburg;Hamburg;6657;Wellingsbüttel;AWBS;5;Rolfinckstr. 5;22391;Hamburg;Hamburger Verkehrsverbund GmbH;HVV;nein;ja;53.641247827677;10.0827133655548
Schleswig-Holstein;Schleswig-Holstein;6704;Wesselburen;AWBU;7;Heidstieg 7;25764;Wesselburen;LVS Schleswig-Holstein Landesweite Verkehrsservicegesellschaft mbH;0;nein;ja;54.207191884086;8.93277929478463
Hamburg;Hamburg;6530;Wandsbeker Chaussee;AWCH;4;Wandsbeker Chaussee 288;22089;Hamburg;Hamburger Verkehrsverbund GmbH;HVV;nein;ja;53.5696508803725;10.0600004196167
Niedersachsen;Hamburg;6668;Wendisch Evern;AWE;7;Am Bahnhof 1;21403;Wendisch Evern;Landesnahverkehrsgesellschaft Niedersachsen mbH;HVV;nein;ja;53.2175639222228;10.4629898071289
Hamburg;Hamburg;2523;Wilhelmsburg;AWFS;4;Wilhelm-Strauss-Weg 1;21109;Hamburg;Hamburger Verkehrsverbund GmbH;HVV;nein;ja;53.4984080532726;10.0068005300625
Niedersachsen;Bremen Hbf;6798;Wingst;AWG;6;Bahnhofstr. 3;21789;Wingst;Landesnahverkehrsgesellschaft Niedersachsen mbH;0;nein;ja;53.7457711874136;9.09780979156493
Niedersachsen;Hamburg;6805;Winsen (Luhe);AWI;4;Am Bahnhof;21423;Winsen (Luhe);Landesnahverkehrsgesellschaft Niedersachsen mbH;HVV;nein;ja;53.353408576676;10.2086788415909
Niedersachsen;Bremen Hbf;6809;Wintermoor;AWIM;6;Poststr. 25;29640;Schneverdingen;Landesnahverkehrsgesellschaft Niedersachsen mbH;0;nein;ja;53.1860582765147;9.82858300209045
Schleswig-Holstein;Schleswig-Holstein;6786;Wilster;AWIR;5;Bahnhofstr. 19a;25554;Wilster;LVS Schleswig-Holstein Landesweite Verkehrsservicegesellschaft mbH;0;nein;ja;53.9262495549818;9.3836921453476
Schleswig-Holstein;Schleswig-Holstein;6474;Wakendorf;AWK;7;Bahnhofstr. 5;23845;Wakendorf I;LVS Schleswig-Holstein Landesweite Verkehrsservicegesellschaft mbH;SH-Tarif;nein;ja;53.8662510214672;10.3659269213676
Schleswig-Holstein;Hamburg;6575;Wedel (Holst);AWL;5;Rathausplatz 1;22880;Wedel (Holst);LVS Schleswig-Holstein Landesweite Verkehrsservicegesellschaft mbH;HVV;nein;ja;53.5820418911147;9.70509241054727
Schleswig-Holstein;Schleswig-Holstein;6714;Westerland (Sylt);AWLA;3;Kirchenweg 1;25980;Sylt/ OT Westerland  ;LVS Schleswig-Holstein Landesweite Verkehrsservicegesellschaft mbH;0;ja;ja;54.9071767117078;8.31006513919449
Schleswig-Holstein;Hamburg;6845;Wohltorf;AWLF;5;Kastanienallee;21521;Wohltorf;LVS Schleswig-Holstein Landesweite Verkehrsservicegesellschaft mbH;HVV;nein;ja;53.5206625173867;10.2780176975109
Hamburg;Hamburg;2522;Hamburg-Wandsbek;AWN;4;Bahngärten 34;22041;Hamburg;Hamburger Verkehrsverbund GmbH;HVV;nein;ja;53.5698993590653;10.0772416591644
Niedersachsen;Bremen Hbf;6876;Wolterdingen (Han);AWOL;7;Soltauer Straße;29614;Soltau;Landesnahverkehrsgesellschaft Niedersachsen mbH;0;nein;ja;53.0267610906207;9.84541710376107
Niedersachsen;Bremen Hbf;6895;Wremen;AWRE;6;Am Bahnhof 6;27638;Wremen;Landesnahverkehrsgesellschaft Niedersachsen mbH;0;nein;ja;53.646979535667;8.52136019492307
Schleswig-Holstein;Schleswig-Holstein;6842;Witzwort;AWRT;7;Siethwende 4;25889;Witzwort;LVS Schleswig-Holstein Landesweite Verkehrsservicegesellschaft mbH;0;nein;ja;54.3858012040046;8.99831082139696
Schleswig-Holstein;Schleswig-Holstein;6897;Wrist;AWST;4;Hauptstraße 1;25563;Wrist;LVS Schleswig-Holstein Landesweite Verkehrsservicegesellschaft mbH;0;nein;ja;53.9320941564461;9.74784206040957
Schleswig-Holstein;Schleswig-Holstein;7250;Husby;AY;6;Schleswiger Str. 8;24975;Husby;LVS Schleswig-Holstein Landesweite Verkehrsservicegesellschaft mbH;0;nein;ja;54.7641902350377;9.57629139008728
Brandenburg;Cottbus;74;Altdöbern;BAD;6;Bahnhofstr.1;3229;Luckaitztal;Verkehrsverbund Berlin-Brandenburg GmbH für Brandenburg;VBB;nein;ja;51.6527465671185;14.0091722547461
Berlin;Berlin;534;Berlin-Adlershof;BADL;4;Adlergestell 254-256;12489;Berlin;Verkehrsverbund Berlin-Brandenburg GmbH für Berlin;VBB;nein;ja;52.4347704433258;13.5414864749149
Brandenburg;Frankfurt (Oder);30;Ahrensfelde Nord;BAFN;6;Bahnstraße 34 d;16356;Ahrensfelde ;Verkehrsverbund Berlin-Brandenburg GmbH für Brandenburg;VBB;nein;ja;52.5911173174882;13.5822486877441
Brandenburg;Frankfurt (Oder);29;Ahrensfelde Friedhof;BAFR;6;Ulmenallee 3a;16356;Ahrensfelde;Verkehrsverbund Berlin-Brandenburg GmbH für Brandenburg;VBB;nein;ja;52.5803921222347;13.5730844736099
Berlin;Berlin;116;Altglienicke;BAGL;4;Germanenstr. 137;12524;Berlin;Verkehrsverbund Berlin-Brandenburg GmbH für Berlin;VBB;nein;ja;52.4069134198375;13.5582447052002
Brandenburg;Frankfurt (Oder);8243;Blumberg-Rehhahn;BAHH;7;Henry-Kruse Str.;16356;Ahrensfelde;Verkehrsverbund Berlin-Brandenburg GmbH für Brandenburg;;nein;nein;52.5967765377545;13.5920780897141
Berlin;Berlin;28;Ahrensfelde;BAHR;4;Märkische Allee;12689;Berlin;Verkehrsverbund Berlin-Brandenburg GmbH für Berlin;VBB;nein;ja;52.5712682873225;13.5655527926506
Berlin;Berlin;525;Berlin Anhalter Bahnhof;BAHU;3;Stresemannstraße;10963;Berlin;Verkehrsverbund Berlin-Brandenburg GmbH für Berlin;VBB;nein;ja;52.5034599250014;13.381407558918
Berlin;Berlin;53;Alexanderplatz;BALE;3;Dircksenstr. 2;10179;Berlin;Verkehrsverbund Berlin-Brandenburg GmbH für Berlin;VBB;nein;ja;52.5215541471916;13.4113307680402
Berlin;Berlin;7719;Alt-Reinickendorf;BARF;6;Roedernallee;13407;Berlin;Verkehrsverbund Berlin-Brandenburg GmbH für Berlin;VBB;nein;ja;52.5777360152643;13.3512822819632
Brandenburg;Frankfurt (Oder);71;Alt Rosenthal;BARO;6;Bahnhofstr. 5;15306;Vierlinden;Verkehrsverbund Berlin-Brandenburg GmbH für Brandenburg;VBB;nein;ja;52.5502971604976;14.2782211303711
Brandenburg;Frankfurt (Oder);128;Altranft;BART;6;Alte Heerstr. 27;16259;Bad Freienwalde (Oder);Verkehrsverbund Berlin-Brandenburg GmbH für Brandenburg;VBB;nein;ja;52.7633169731819;14.0823912620544
Berlin;Potsdam;45;Albrechtshof;BAS;5;Seegefelder Str. 1;13591;Berlin;Verkehrsverbund Berlin-Brandenburg GmbH für Berlin;VBB;nein;ja;52.5494126293727;13.1289249658584
Berlin;Berlin;203;Attilastraße;BATS;5;Attilastraße;12105;Berlin;Verkehrsverbund Berlin-Brandenburg GmbH für Berlin;VBB;nein;ja;52.4480177989806;13.3607447147369
Brandenburg;Cottbus;421;Baruth (Mark);BBA;6;Bahnhofstr.5;15837;Baruth (Mark) ;Verkehrsverbund Berlin-Brandenburg GmbH für Brandenburg;VBB;nein;ja;52.0581172145562;13.5118053604606
Brandenburg;Berlin;237;Babelsberg;BBAB;5;Rudolf -Breitscheid-Straße 40;14482;Potsdam;Verkehrsverbund Berlin-Brandenburg GmbH für Brandenburg;VBB;nein;ja;52.3913905696139;13.0929324030876
Brandenburg;Potsdam;380;Baitz;BBAI;6;Bahnhofstr.1;14822;Brück;Verkehrsverbund Berlin-Brandenburg GmbH für Brandenburg;0;nein;ja;52.1640403040749;12.6846393942833
Berlin;Berlin;951;Buckower Chaussee;BBCH;5;Buckower Chaussee;12277;Berlin;Verkehrsverbund Berlin-Brandenburg GmbH für Berlin;VBB;nein;ja;52.4105349051903;13.3827924728393
Berlin;Berlin;631;Biesdorf;BBDF;4;Oberfeldstr.197;12683;Berlin;Verkehrsverbund Berlin-Brandenburg GmbH für Berlin;VBB;nein;ja;52.5130995167435;13.5554009313365
Brandenburg;Cottbus;607;Beutersitz;BBE;6;Am Bahnhof 2;4924;Uebigau-Wahrenbrück;Verkehrsverbund Berlin-Brandenburg GmbH für Brandenburg;0;nein;ja;51.5902987474612;13.3606248093201
Brandenburg;Potsdam;452;Beelitz-Heilstätten;BBEL;6;Str. am Bahnhof 1;14547;Beelitz;Verkehrsverbund Berlin-Brandenburg GmbH für Brandenburg;VBB;nein;ja;52.2620639946328;12.9255437850952
Brandenburg;Frankfurt (Oder);456;Beeskow;BBES;6;Am Bahnhof 1;15848;Beeskow;Verkehrsverbund Berlin-Brandenburg GmbH für Brandenburg;VBB;nein;ja;52.177611444701;14.2509490809417
Berlin;Berlin;7726;Beusselstraße;BBEU;4;Beusselbrücke;10551;Berlin;Verkehrsverbund Berlin-Brandenburg GmbH für Berlin;VBB;nein;ja;52.5343848371025;13.3293843269348
Berlin;Berlin;475;Bellevue;BBEV;4;Bartningallee 18;10557;Berlin;Verkehrsverbund Berlin-Brandenburg GmbH für Berlin;VBB;nein;ja;52.5199247656217;13.3479881286621
Brandenburg;Cottbus;688;Blankenfelde (Kr Teltow-Fläming);BBF;4;Karl-Marx-Str.2;15827;Blankenfelde ;Verkehrsverbund Berlin-Brandenburg GmbH für Brandenburg;VBB;nein;ja;52.3372991936045;13.4160125255585
Brandenburg;Berlin;503;Bergfelde (b Berlin);BBFE;4;Wilhelm -Straße;16562;Hohen Neuendorf;Verkehrsverbund Berlin-Brandenburg GmbH für Brandenburg;VBB;nein;ja;52.6701486971792;13.3204239606857
Brandenburg;Cottbus;373;Bagenz;BBG;6;Bahnweg 1;3058;Neuhausen/Spree;Verkehrsverbund Berlin-Brandenburg GmbH für Brandenburg;0;nein;ja;51.6548416747593;14.4269011598079
Berlin;Berlin;803;Botanischer Garten;BBGT;4;Hortensienstraße 28b;12203;Berlin;Verkehrsverbund Berlin-Brandenburg GmbH für Berlin;VBB;nein;ja;52.4482679158339;13.3079195022583
Brandenburg;Frankfurt (Oder);661;Birkenwerder (b Berlin);BBI;4;Klara-Zetkin-Str. 13;16547;Birkenwerder;Verkehrsverbund Berlin-Brandenburg GmbH für Brandenburg;VBB;nein;ja;52.6886565028685;13.2887256145477
Brandenburg;Potsdam;478;Bad Belzig;BBIG;5;Am Bahnhof 11;14806;Belzig;Verkehrsverbund Berlin-Brandenburg GmbH für Brandenburg;0;nein;ja;52.1359941630062;12.5950002670288
Brandenburg;Berlin;660;Birkenstein;BBIS;5;Hönower Weg;15366;Hoppegarten;Verkehrsverbund Berlin-Brandenburg GmbH für Brandenburg;VBB;nein;ja;52.5156171549431;13.6472296714783
Brandenburg;Potsdam;786;Borkheide;BBK;6;Hans-Grade-Str.1;14822;Borkheide;Verkehrsverbund Berlin-Brandenburg GmbH für Brandenburg;0;nein;ja;52.230783090189;12.8545016482704
Berlin;Berlin;535;Berlin-Blankenburg;BBKB;4;Bahnhofstraße 1;13129;Berlin;Verkehrsverbund Berlin-Brandenburg GmbH für Berlin;0;nein;ja;52.5914223757963;13.4435051679611
Brandenburg;Frankfurt (Oder);405;Bärenklau;BBKL;7;Eichstädter Weg 1;16727;Oberkrämer-Bärenklau;Verkehrsverbund Berlin-Brandenburg GmbH für Brandenburg;VBB;nein;ja;52.7042124469668;13.1432341274462
Brandenburg;Frankfurt (Oder);524;Berkenbrück;BBKR;6;Am Bahnhof 1;15518;Berkenbrück;Verkehrsverbund Berlin-Brandenburg GmbH für Brandenburg;VBB;nein;ja;52.3570965770359;14.1656470298767
Brandenburg;Frankfurt (Oder);710;Blumberg (b Berlin);BBLU;6;Bahnhofstr. 2;15356;Ahrensfelde-Blumberg;Verkehrsverbund Berlin-Brandenburg GmbH für Brandenburg;VBB;nein;ja;52.6052490861805;13.6118326777543
Brandenburg;Cottbus;303;Bad Liebenwerda;BBLW;7;Bahnhofstr. 1;4924;Bad Liebenwerda;Verkehrsverbund Berlin-Brandenburg GmbH für Brandenburg;0;nein;ja;51.5182788552678;13.4028311489826
Brandenburg;Cottbus;374;Bahnsdorf;BBO;6;Zollhausstr.;3103;Neu-Seeland;Verkehrsverbund Berlin-Brandenburg GmbH für Brandenburg;VBB;nein;ja;51.5817188092921;14.1123962402344
Brandenburg;Berlin;782;Borgsdorf;BBOR;5;Bahnhofstr.1;16556;Hohen Neuendorf OTBorgsdo;Verkehrsverbund Berlin-Brandenburg GmbH für Brandenburg;VBB;nein;ja;52.7153313414435;13.276524315209
Berlin;Berlin;791;Bornholmer Straße;BBOS;4;Bornholmerstrasse /Bösebrücke;13187;Berlin;Verkehrsverbund Berlin-Brandenburg GmbH für Berlin;VBB;nein;ja;52.5546954172696;13.3978544640558
Brandenburg;Cottbus;820;Brand (Niederlausitz);BBRA;6;Am Bahnhof 51;15757;Halbe;Verkehrsverbund Berlin-Brandenburg GmbH für Brandenburg;VBB;nein;ja;52.0298735591756;13.7214770023234
Brandenburg;Berlin;7910;Bernau-Friedenstal;BBRF;5;Zepernicker Chaussee;16321;Bernau;Verkehrsverbund Berlin-Brandenburg GmbH für Brandenburg;VBB;nein;ja;52.6683627648285;13.5645961761474
Brandenburg;Potsdam;885;Brieselang;BBRI;6;Wustermarker Str.;14656;Brieselang;Verkehrsverbund Berlin-Brandenburg GmbH für Brandenburg;VBB;nein;ja;52.5829465473247;13.0000323057175
Brandenburg;Potsdam;909;Brück (Mark);BBRK;6;Bahnhofstr. 61;14822;Brück;Verkehrsverbund Berlin-Brandenburg GmbH für Brandenburg;0;nein;ja;52.1868366122146;12.7585462027709
Brandenburg;Frankfurt (Oder);571;Bernau (b Berlin);BBRN;3;Bahnhofsplatz 1;16321;Bernau bei Berlin;Verkehrsverbund Berlin-Brandenburg GmbH für Brandenburg;VBB;ja;ja;52.6754973826793;13.5917186737061
Brandenburg;Potsdam;659;Birkengrund;BBSH;6;Am Birkengrund;14974;Ludwigsfelde;Verkehrsverbund Berlin-Brandenburg GmbH für Brandenburg;0;nein;ja;52.3156565587428;13.2718312740326
Brandenburg;Frankfurt (Oder);886;Briesen (Mark);BBSN;6;Bahnhofstr. 40;15518;Briesen (Mark);Verkehrsverbund Berlin-Brandenburg GmbH für Brandenburg;VBB;nein;ja;52.3464846041487;14.2813146114349
Brandenburg;Frankfurt (Oder);324;Bad Saarow;BBSP;7;Bahnhofsvorplatz 4;15526;Bad Saarow-Pieskow;Verkehrsverbund Berlin-Brandenburg GmbH für Brandenburg;VBB;nein;ja;52.2932272391844;14.0649253671819
Brandenburg;Cottbus;590;Bestensee;BBST;6;Bahnhofstr.;15741;Bestensee;Verkehrsverbund Berlin-Brandenburg GmbH für Brandenburg;VBB;nein;ja;52.2419552534124;13.634941044993
Berlin;Berlin;536;Berlin-Buch;BBU;4;Wiltbergstr. 29;13125;Berlin;Verkehrsverbund Berlin-Brandenburg GmbH für Berlin;VBB;nein;ja;52.6359676656478;13.4918940067291
Berlin;Berlin;970;Bundesplatz;BBUP;4;Bundesallee/Wexstraße;10715;Berlin;Verkehrsverbund Berlin-Brandenburg GmbH für Berlin;VBB;nein;ja;52.4776573780501;13.3293771743774
Brandenburg;Frankfurt (Oder);949;Buckow (b Beeskow);BBUW;7;Bahnhofstr.;15848;Rietz-Neuendorf;Verkehrsverbund Berlin-Brandenburg GmbH für Brandenburg;VBB;nein;ja;52.1881896707031;14.1694593429565
Brandenburg;Potsdam;942;Buchholz (Zauche);BBUZ;7;Bahnhofstr. 75a;14823;Niemegk;Verkehrsverbund Berlin-Brandenburg GmbH für Brandenburg;0;nein;ja;52.1664171140338;12.9212522506714
Berlin;Berlin;430;Baumschulenweg;BBW;4;Baumschulenstr. 40;12437;Berlin;Verkehrsverbund Berlin-Brandenburg GmbH für Berlin;VBB;nein;ja;52.4674578624067;13.489772206386
Brandenburg;Potsdam;451;Beelitz Stadt;BBZS;6;Bahnhofstr. 9;14547;Beelitz Stadt;Verkehrsverbund Berlin-Brandenburg GmbH für Brandenburg;0;nein;ja;52.239335573592;12.9667621850967
Brandenburg;Cottbus;1019;Calau (Niederlausitz);BC;5;Bahnhofstr.6;3205;Calau ;Verkehrsverbund Berlin-Brandenburg GmbH für Brandenburg;VBB;ja;ja;51.7381968138794;13.9795410633087
Brandenburg;Potsdam;1029;Caputh-Geltow;BCAP;7;Am Bahnhof;14542;Schwielowsee OT Caputh;Verkehrsverbund Berlin-Brandenburg GmbH für Brandenburg;0;nein;ja;52.3503722273882;12.984564474823
Berlin;Berlin;537;Berlin-Charlottenburg;BCHB;3;Stuttgarter Platz 36;10627;Berlin;Verkehrsverbund Berlin-Brandenburg GmbH für Berlin;VBB;nein;ja;52.5044705007095;13.3031126265787
Brandenburg;Frankfurt (Oder);1072;Coschen;BCO;6;Hauptstr. 21;15898;Neißemünde;Verkehrsverbund Berlin-Brandenburg GmbH für Brandenburg;VBB;nein;ja;52.0200647924951;14.7184100747108
Brandenburg;Cottbus;1077;Cottbus;BCS;2;Vetschauer Str. 70;3048;Cottbus;Verkehrsverbund Berlin-Brandenburg GmbH für Brandenburg;VBB;ja;ja;51.750819554522;14.3241548538208
Brandenburg;Cottbus;5503;Cottbus-Sandow;BCSO;6;Am Gleisdreieck1;3042;Cottbus;Verkehrsverbund Berlin-Brandenburg GmbH für Brandenburg;VBB;nein;ja;51.7552173164966;14.3536553871581
Brandenburg;Cottbus;1098;Dabendorf;BDAB;5;Am Bahnhof 1;15806;Zossen;Verkehrsverbund Berlin-Brandenburg GmbH für Brandenburg;VBB;nein;ja;52.2369265237264;13.4374165534973
Brandenburg;Cottbus;1333;Drahnsdorf;BDF;6;Bahnhofstr. 3;15938;Drahnsdorf;Verkehrsverbund Berlin-Brandenburg GmbH für Brandenburg;VBB;nein;ja;51.9156947858;13.5814810752868
Brandenburg;Cottbus;1240;Doberlug-Kirchhain;BDKU;4;Am Bahnhof 1;3253;Doberlug-Kirchhain;Verkehrsverbund Berlin-Brandenburg GmbH für Brandenburg;VBB;nein;ja;51.620619061302;13.564222854031
Brandenburg;Potsdam;1116;Dallgow-Döberitz;BDL;5;Bahnhofstr.;14624;Dallgow (b Berlin);Verkehrsverbund Berlin-Brandenburg GmbH für Brandenburg;VBB;nein;ja;52.5436717141098;13.058050274849
Brandenburg;Cottbus;1337;Drebkau;BDR;6;Bahnhofstr. 3;3116;Drebkau;Verkehrsverbund Berlin-Brandenburg GmbH für Brandenburg;0;nein;ja;51.6551534892002;14.223273468093
Brandenburg;Cottbus;1109;Dahlewitz;BDT;5;Bahnhofstr.86;15827;Blankenfeld;Verkehrsverbund Berlin-Brandenburg GmbH für Brandenburg;VBB;nein;ja;52.3263196444597;13.4198686480522
Brandenburg;Potsdam;5013;Potsdam Medienstadt Babelsberg;BDW;5;Wetzlarer Str. 1;14482;Potsdam;Verkehrsverbund Berlin-Brandenburg GmbH für Brandenburg;VBB;nein;ja;52.3824528141399;13.1219738059574
Brandenburg;Cottbus;1570;Elsterwerda-Biehla;BEB;5;Am Nordbahnhof;4910;Elsterwerda;Verkehrsverbund Berlin-Brandenburg GmbH für Brandenburg;0;nein;ja;51.4722632112267;13.5195044108799
Berlin;Berlin;7722;Eichborndamm;BEBD;5;Eichborndamm;13403;Berlin;Verkehrsverbund Berlin-Brandenburg GmbH für Berlin;VBB;nein;ja;52.5776576625813;13.3172064477747
Brandenburg;Frankfurt (Oder);1536;Eisenhüttenstadt;BEHS;5;Eisenbahnstr. 2;15890;Eisenhüttenstadt;Verkehrsverbund Berlin-Brandenburg GmbH für Brandenburg;VBB;nein;ja;52.1478955448221;14.6584862839638
Brandenburg;Berlin;1507;Eichwalde;BEIW;5;Heinrich-Heine-Allee;15732;Eichwalde;Verkehrsverbund Berlin-Brandenburg GmbH für Brandenburg;VBB;nein;ja;52.3712294862241;13.6153715423175
Brandenburg;Frankfurt (Oder);1645;Erkner;BERK;3;Bahnhofstr.;15537;Erkner;Verkehrsverbund Berlin-Brandenburg GmbH für Brandenburg;VBB;nein;ja;52.4279531483122;13.7517285346985
Brandenburg;Potsdam;6958;Elstal;BETN;6;Bahnhofstr.;14641;Wustermark;Verkehrsverbund Berlin-Brandenburg GmbH für Brandenburg;VBB;nein;ja;52.5476320962494;13.0000823736191
Brandenburg;Cottbus;1569;Elsterwerda;BEW;4;Am Bahnhof 1;4910;Elsterwerda;Verkehrsverbund Berlin-Brandenburg GmbH für Brandenburg;VBB;ja;ja;51.4600426751219;13.5165525334222
Brandenburg;Potsdam;1562;Elsholz;BEZ;6;Bahnhofsweg  1;14547;Elsholz;Verkehrsverbund Berlin-Brandenburg GmbH für Brandenburg;VBB;nein;ja;52.2037077321257;12.9548442363739
Berlin;Berlin;526;Berlin Frankfurter Allee;BFAL;4;Frankfurter Allee 111 A;10247;Berlin;Verkehrsverbund Berlin-Brandenburg GmbH für Berlin;VBB;nein;ja;52.5149701629868;13.4745432738483
Berlin;Berlin;1787;Feuerbachstraße;BFB;5;Feuerbachstr.31;12163;Berlin;Verkehrsverbund Berlin-Brandenburg GmbH für Berlin;VBB;nein;ja;52.4636427427052;13.3326986432076
Brandenburg;Frankfurt (Oder);1934;Friedersdorf (b Königs Wusterhausen);BFDF;6;Bahnhofstr. 9;15754;Heidesee;Verkehrsverbund Berlin-Brandenburg GmbH für Brandenburg;VBB;nein;ja;52.289466056447;13.786452599845
Berlin;Berlin;1944;Friedrichsfelde Ost;BFFO;4;Seddiner Str.23;10315;Berlin;Verkehrsverbund Berlin-Brandenburg GmbH für Berlin;0;nein;ja;52.5140608358795;13.5200786590576
Brandenburg;Berlin;1821;Berlin-Schönefeld Flughafen;BFHS;3;Mittelstr. 20;12527;Schönefeld;Verkehrsverbund Berlin-Brandenburg GmbH für Brandenburg;VBB;nein;ja;52.3914318301671;13.5127125640173
Brandenburg;Frankfurt (Oder);1791;Finkenheerd;BFIH;6;Bahnhofstr. 32;15295;Brieskow-Finkenheerd;Verkehrsverbund Berlin-Brandenburg GmbH für Brandenburg;VBB;nein;ja;52.249489376406;14.5696556568146
Brandenburg;Frankfurt (Oder);3393;Kraftwerk Finkenheerd;BFIK;6;Heuweg 1;15295;Brieskow-Finkenherd;Verkehrsverbund Berlin-Brandenburg GmbH für Brandenburg;VBB;nein;ja;52.2632498897453;14.575661940234
Brandenburg;Potsdam;1792;Finkenkrug;BFIN;6;Finkenkruger Str. 12;14612;Falkensee;Verkehrsverbund Berlin-Brandenburg GmbH für Brandenburg;VBB;nein;ja;52.5695001914847;13.0517873167992
Brandenburg;Potsdam;1757;Falkensee;BFKS;5;Finkenkruger Str.;14612;Falkensee;Verkehrsverbund Berlin-Brandenburg GmbH für Brandenburg;VBB;nein;ja;52.5595947599955;13.0898464947362
Brandenburg;Potsdam;1777;Ferch-Lienewitz;BFLZ;7;Am Bahnhof 1;14542;Schwielowsee;Verkehrsverbund Berlin-Brandenburg GmbH für Brandenburg;VBB;nein;ja;52.3037422545704;12.9641318321228
Brandenburg;Cottbus;1834;Forst (Lausitz);BFO;6;Sorauer Str. 1;3149;Forst ;Verkehrsverbund Berlin-Brandenburg GmbH für Brandenburg;VBB;ja;ja;51.7389892610623;14.6374720246279
Berlin;Berlin;539;Berlin-Frohnau;BFOH;4;Ludolfinger Plattz;13465;Berlin;Verkehrsverbund Berlin-Brandenburg GmbH für Berlin;VBB;nein;ja;52.6324019666888;13.2902356982231
Brandenburg;Frankfurt (Oder);1859;Frankfurt (Oder);BFP;3;Bahnhofsplatz 11;15230;Frankfurt (Oder);Verkehrsverbund Berlin-Brandenburg GmbH für Brandenburg;VBB;ja;ja;52.3364810844303;14.5469511446264
Brandenburg;Frankfurt (Oder);7748;Frankfurt (Oder)-Neuberesinchen;BFPN;7;Mühlenweg;15232;Frankfurt (Oder);Verkehrsverbund Berlin-Brandenburg GmbH für Brandenburg;0;nein;ja;52.3224621352589;14.5463342594461
Sachsen;Leipzig;1884;Frauenhain;BFR;6;Am Bahnhof 9;1609;Röderaue;Verkehrsbund Oberelbe GmbH;VVO;nein;ja;51.3842228829069;13.5036134719849
Brandenburg;Berlin;1889;Fredersdorf (b Berlin);BFRD;5;Bahnhofstr.1;15370;Fredersdorf ;Verkehrsverbund Berlin-Brandenburg GmbH für Brandenburg;VBB;nein;ja;52.5261694199839;13.7604881286621
Berlin;Berlin;538;Berlin-Friedrichshagen;BFRH;4;Fürstenwalder Damm 484;12587;Berlin;Verkehrsverbund Berlin-Brandenburg GmbH für Berlin;0;nein;ja;52.4573218434198;13.6251202225685
Berlin;Berlin;527;Berlin-Friedrichstraße;BFRI;2;Georgenstraße 14/17;10117;Berlin;Verkehrsverbund Berlin-Brandenburg GmbH für Berlin;VBB;nein;ja;52.520266958173;13.3870902657509
Brandenburg;Frankfurt (Oder);1862;Frankfurt (Oder)-Rosengarten;BFRS;6;Hauptstr. 10;15234;Frankfurt (Oder);Verkehrsverbund Berlin-Brandenburg GmbH für Brandenburg;VBB;nein;ja;52.3377892104591;14.4727206230164
Berlin;Berlin;1932;Friedenau;BFRU;4;Bahnhofstraße 4;12159;Berlin;Verkehrsverbund Berlin-Brandenburg GmbH für Berlin;VBB;nein;ja;52.4708192304315;13.3415156808393
Brandenburg;Frankfurt (Oder);1762;Fangschleuse;BFS;6;Am Bahnhof;15537;Grünheide (Mark);Verkehrsverbund Berlin-Brandenburg GmbH für Brandenburg;VBB;nein;ja;52.4067665222672;13.8238168565007
Brandenburg;Frankfurt (Oder);1981;Fürstenwalde (Spree) Süd;BFUS;7;Bahnhofstr.;15517;Fürstenwalde (Spree);Verkehrsverbund Berlin-Brandenburg GmbH für Brandenburg;VBB;nein;ja;52.3418835963383;14.086614522067
Brandenburg;Frankfurt (Oder);1980;Fürstenwalde (Spree);BFUW;4;Am Bahnhof 1;15517;Fürstenwalde (Spree);Verkehrsverbund Berlin-Brandenburg GmbH für Brandenburg;VBB;nein;ja;52.3671665452063;14.0584591952854
Brandenburg;Cottbus;1795;Finsterwalde (Niederlausitz);BFW;5;Bahnhofstr. 5;3238;Finsterwalde ;Verkehrsverbund Berlin-Brandenburg GmbH für Brandenburg;VBB;nein;ja;51.636978014615;13.7103867530823
Berlin;Berlin;540;Berlin-Grünau;BGA;4;Adlergestell/Wassersportallee;12527;Berlin;Verkehrsverbund Berlin-Brandenburg GmbH für Berlin;VBB;nein;ja;52.4128397592523;13.5736498367987
Berlin;Berlin;2391;Grünbergallee;BGBA;5;Grünbergallee;12526;Berlin;Verkehrsverbund Berlin-Brandenburg GmbH für Berlin;0;nein;ja;52.399297192489;13.5418762880213
Brandenburg;Potsdam;2268;Griebnitzsee;BGBS;4;Rudolf-Breitscheid-Str. 201;14482;Potsdam;Verkehrsverbund Berlin-Brandenburg GmbH für Brandenburg;VBB;nein;ja;52.3943471784295;13.1282007694244
Berlin;Berlin;541;Berlin-Grunewald;BGD;4;Am Bahnhof Grunewald;14193;Berlin;Verkehrsverbund Berlin-Brandenburg GmbH für Berlin;VBB;nein;ja;52.4883227636257;13.2610756158829
Berlin;Berlin;7755;Yorckstraße (Großgörschenstraße);BGGS;5;Großgörschenstr.30;10965;Berlin;Verkehrsverbund Berlin-Brandenburg GmbH für Berlin;VBB;nein;ja;52.4923390161326;13.3679881602971
Brandenburg;Cottbus;2177;Gollmitz (Niederlausitz);BGM;7;Bahnhofstr. 2;3205;Calau;Verkehrsverbund Berlin-Brandenburg GmbH für Brandenburg;0;nein;ja;51.7034170533034;13.8840579986572
Brandenburg;Cottbus;2180;Golßen (Niederlausitz);BGO;6;Bahnhofstr. 1;15938;Golßen ;Verkehrsverbund Berlin-Brandenburg GmbH für Brandenburg;VBB;nein;ja;51.9745072694037;13.5745310783386
Brandenburg;Potsdam;2178;Golm;BGOL;6;K.-Liebknecht-Str. 28;14476;Potsdam;Verkehrsverbund Berlin-Brandenburg GmbH für Brandenburg;VBB;nein;ja;52.4098186309731;12.9718744754791
Brandenburg;Frankfurt (Oder);2192;Gorgast;BGOR;6;E.-Thälmann-Str. 32;15328;Küstriner Vorland;Verkehrsverbund Berlin-Brandenburg GmbH für Brandenburg;VBB;nein;ja;52.5632734498614;14.5513549835786
Brandenburg;Cottbus;2359;Großräschen;BGR;6;Bahnhofstr. 1;1983;Großräschen;Verkehrsverbund Berlin-Brandenburg GmbH für Brandenburg;VBB;nein;ja;51.5915912479981;14.0149245542638
Brandenburg;Frankfurt (Oder);2400;Grunow (Niederlausitz);BGRU;6;Bahnhofstr. 12;15299;Grunow/Dammendorf (Nieder;Verkehrsverbund Berlin-Brandenburg GmbH für Brandenburg;VBB;nein;ja;52.1650858005495;14.3786153197289
Berlin;Berlin;528;Berlin-Gesundbrunnen;BGS;1;Badstr.1-3;13357;Berlin;Verkehrsverbund Berlin-Brandenburg GmbH für Berlin;VBB;ja;ja;52.5487879559014;13.3903706073761
Brandenburg;Potsdam;2325;Großbeeren;BGSB;6;Am Bahnhof 6;14979;Großbeeren;Verkehrsverbund Berlin-Brandenburg GmbH für Brandenburg;0;nein;ja;52.3509363910025;13.2847239346093
Berlin;Berlin;2035;Gehrenseestraße;BGSE;5;Gehrenseestr.46;13053;Berlin;Verkehrsverbund Berlin-Brandenburg GmbH für Berlin;VBB;nein;ja;52.5564334780291;13.5247707366943
Berlin;Berlin;529;Greifswalder Straße;BGSS;4;Greifswalder Str. 80;10409;Berlin;Verkehrsverbund Berlin-Brandenburg GmbH für Berlin;VBB;nein;ja;52.5401666627297;13.4390223026276
Brandenburg;Frankfurt (Oder);2427;Seelow-Gusow;BGSW;6;Am Bahnhof 1;15306;Gusow;Verkehrsverbund Berlin-Brandenburg GmbH für Brandenburg;VBB;nein;ja;52.5595555742645;14.352871283241
Brandenburg;Frankfurt (Oder);2405;Guben;BGU;5;Bahnhofstr. 9-10;3172;Guben;Verkehrsverbund Berlin-Brandenburg GmbH für Brandenburg;VBB;nein;ja;51.9584288705867;14.7068738937378
Brandenburg;Frankfurt (Oder);2185;Golzow (Oderbruch);BGZ;6;Siedlung;15328;Golzow;Verkehrsverbund Berlin-Brandenburg GmbH für Brandenburg;VBB;nein;ja;52.5626015474616;14.5121741294861
Sachsen;Dresden;2470;Hähnichen;BHAH;6;Bahnhofstr. 8;2923;Hähnichen;Zweckverband Verkehrsverbund Oberlausitz-Niederschlesien;ZVON;nein;ja;51.3641990279236;14.8565741125296
Berlin;Berlin;542;Berlin-Halensee;BHAL;4;Kurfürstendamm 129a-b;10711;Berlin;Verkehrsverbund Berlin-Brandenburg GmbH für Berlin;VBB;nein;ja;52.4959918793938;13.2905673980713
Brandenburg;Cottbus;2486;Halbe;BHB;6;Bahnhofstr. 30;15757;Halbe;Verkehrsverbund Berlin-Brandenburg GmbH für Brandenburg;VBB;nein;ja;52.1089300990805;13.7011957168579
Berlin;Berlin Hauptbahnhof;1071;Berlin Hauptbahnhof;BHBF;1;Europaplatz 1;10557;Berlin;Verkehrsverbund Berlin-Brandenburg GmbH für Berlin;VBB;ja;ja;52.5249931670462;13.3696973323822
Brandenburg;Cottbus;2834;Hosena;BHC;5;Bahnhofstr. 1a;1996;Senftenberg;Verkehrsverbund Berlin-Brandenburg GmbH für Brandenburg;0;nein;ja;51.454753337642;14.015642574215
Brandenburg;Frankfurt (Oder);2727;Herrensee;BHE;6;E.-Thälmann-Str.;15345;Rehfelde OT Herrensee;Verkehrsverbund Berlin-Brandenburg GmbH für Brandenburg;VBB;nein;ja;52.5298896921255;13.8874626159668
Berlin;Berlin;543;Berlin-Hermsdorf;BHED;4;Bahnhofsplatz;13467;Berlin;Verkehrsverbund Berlin-Brandenburg GmbH für Berlin;VBB;nein;ja;52.617446728635;13.3074964795794
Berlin;Berlin;2632;Heidelberger Platz;BHEI;4;Mecklenburgerstr.23;14197;Berlin;Verkehrsverbund Berlin-Brandenburg GmbH für Berlin;VBB;nein;ja;52.479896881372;13.3120297515597
Brandenburg;Frankfurt (Oder);2672;Helenesee;BHEL;7;Im Wald;15236;Frankfurt (Oder);Verkehrsverbund Berlin-Brandenburg GmbH für Brandenburg;VBB;nein;ja;52.2797377383817;14.4793796539307
Berlin;Berlin;2716;Hermannstraße;BHER;4;Hermannstr.160;12051;Berlin;Verkehrsverbund Berlin-Brandenburg GmbH für Berlin;VBB;nein;ja;52.4676334743675;13.4312494712717
Berlin;Berlin;530;Berlin Ostbahnhof;BHF;1;Koppenstr. 3;10243;Berlin;Verkehrsverbund Berlin-Brandenburg GmbH für Berlin;VBB;ja;ja;52.5104229727832;13.4349467464396
Brandenburg;Frankfurt (Oder);2542;Hangelsberg;BHGB;6;Am Bahnhof;15537;Grünheide (Mark);Verkehrsverbund Berlin-Brandenburg GmbH für Brandenburg;VBB;nein;ja;52.4002019778842;13.9210510253906
Brandenburg;Berlin;2622;Hegermühle;BHGM;6;Am Herrensee;15344;Strausberg;Verkehrsverbund Berlin-Brandenburg GmbH für Brandenburg;VBB;nein;ja;52.5483453002923;13.8664211765412
Berlin;Berlin;2790;Hirschgarten;BHI;5;Am Wiesenrain;12587;Berlin;Verkehrsverbund Berlin-Brandenburg GmbH für Berlin;0;nein;ja;52.4578497898292;13.6031625347753
Berlin;Berlin;2447;Hackescher Markt;BHKM;4;Am Zwirngraben;10178;Berlin;Verkehrsverbund Berlin-Brandenburg GmbH für Berlin;VBB;nein;ja;52.5226419428514;13.4024111411844
Brandenburg;Cottbus;2849;Hohenleipisch;BHL;6;Bahnhofstr.1;4934;Hohenleipisch;Verkehrsverbund Berlin-Brandenburg GmbH für Brandenburg;0;nein;ja;51.4993395373451;13.574884846347
Berlin;Berlin;7729;Heiligensee;BHLS;4;Ruppiner Chaussee 405;13503;Berlin;Verkehrsverbund Berlin-Brandenburg GmbH für Berlin;VBB;nein;ja;52.6247338684935;13.2289731502533
Brandenburg;Berlin;2832;Hohen Neuendorf (b Berlin);BHN;5;Schönfließer Str.16;16540;Hohen Neuendorf;Verkehrsverbund Berlin-Brandenburg GmbH für Brandenburg;VBB;nein;ja;52.6686520725407;13.2870547203836
Brandenburg;Frankfurt (Oder);2691;Hennigsdorf (b Berlin);BHND;3;Postplatz 1 ;16761;Hennigsdorf;Verkehrsverbund Berlin-Brandenburg GmbH für Brandenburg;VBB;nein;ja;52.6379332337633;13.2057273387909
Berlin;Berlin;2866;Hohenzollerndamm;BHO;4;Hohenzollerndamm 48;10713;Berlin;Verkehrsverbund Berlin-Brandenburg GmbH für Berlin;VBB;nein;ja;52.488323852465;13.3006453514099
Brandenburg;Frankfurt (Oder);2833;Hohen Neuendorf West;BHOW;6;Birkenwerder Str. 1;16540;Hohen Neuendorf ;Verkehrsverbund Berlin-Brandenburg GmbH für Brandenburg;VBB;nein;ja;52.6723812810404;13.2714128494263
Brandenburg;Berlin;2901;Hoppegarten (Mark);BHPN;4;Bahnhofstraße;15366;Hoppegarten;Verkehrsverbund Berlin-Brandenburg GmbH für Brandenburg;VBB;nein;ja;52.5182083223882;13.6741858720779
Sachsen;Dresden;2910;Horka Pbf;BHR;6;Uhsmannsdorfer Straße 1;2923;Horka;Zweckverband Verkehrsverbund Oberlausitz-Niederschlesien;ZVON;nein;ja;51.3039488547089;14.9021707778155
Berlin;Berlin;544;Berlin-Hohenschönhausen;BHSH;4;Falkenberger Chaussee 82;13051;Berlin;Verkehrsverbund Berlin-Brandenburg GmbH für Berlin;VBB;nein;ja;52.5660652190983;13.5125032441851
Berlin;Berlin;7728;Heerstraße;BHST;5; Heerstraße/ Boyenallee;14055;Berlin;Verkehrsverbund Berlin-Brandenburg GmbH für Berlin;VBB;nein;ja;52.5082122466258;13.2590619411349
Brandenburg;Frankfurt (Oder);2935;Hubertushöhe;BHUB;6;Am Bahnhof;15859;Storkow (Mark);Verkehrsverbund Berlin-Brandenburg GmbH für Brandenburg;VBB;nein;ja;52.234101198653;13.9648461341858
Berlin;Berlin;2944;Humboldthain;BHUM;4;Wiesenstr.2;13357;Berlin;Verkehrsverbund Berlin-Brandenburg GmbH für Berlin;VBB;nein;ja;52.5446805427194;13.3793250368192
Sachsen;Dresden;2931;Hoyerswerda;BHW;5;Bahnhofsallee 1;2977;Hoyerswerda;Verkehrsbund Oberelbe GmbH;VVO;nein;ja;51.4328896050322;14.2313416509917
Berlin;Berlin;2998;Innsbrucker Platz;BIP;4;Innsbrucker Platz 67;10827;Berlin;Verkehrsverbund Berlin-Brandenburg GmbH für Berlin;VBB;nein;ja;52.4780968552247;13.3416413355098
Brandenburg;Potsdam;3072;Altes Lager;BJA;7;Bahnhofstr. 3;14913;Niedergörsdorf;Verkehrsverbund Berlin-Brandenburg GmbH für Brandenburg;0;nein;ja;52.0157664431809;12.9926204681396
Berlin;Berlin;3032;Jannowitzbrücke;BJB;4;Brückenstraße/Alexanderstraße;10179;Berlin;Verkehrsverbund Berlin-Brandenburg GmbH für Berlin;VBB;nein;ja;52.5141348335591;13.4196227788925
Brandenburg;Frankfurt (Oder);3020;Jacobsdorf (Mark);BJF;6;Bahnhofstr.;15236;Jacobsdorf (Mark);Verkehrsverbund Berlin-Brandenburg GmbH für Brandenburg;VBB;nein;ja;52.3326970312499;14.3556976318359
Berlin;Berlin;7759;Julius-Leber-Brücke;BJLB;5;Czeminskistraße/ Kolonnenstraße;10829;Berlin;Verkehrsverbund Berlin-Brandenburg GmbH für Berlin;VBB;nein;ja;52.4863967192342;13.3610395038159
Brandenburg;Potsdam;3071;Jüterbog;BJUE;4;Am Bahnhof 4;14913;Jüterbog;Verkehrsverbund Berlin-Brandenburg GmbH für Brandenburg;0;nein;ja;51.9974044971641;13.0540284289504
Berlin;Berlin;3067;Jungfernheide;BJUF;4;Max-Dohrn-Str.5;10589;Berlin;Verkehrsverbund Berlin-Brandenburg GmbH für Berlin;VBB;nein;ja;52.5302546508821;13.2995975017548
Brandenburg;Frankfurt (Oder);3033;Jänschwalde;BJW;6;Chausseestr. 60;3197;Jänschwalde;Verkehrsverbund Berlin-Brandenburg GmbH für Brandenburg;VBB;nein;ja;51.8662979040265;14.5008271932602
Brandenburg;Frankfurt (Oder);3034;Jänschwalde Ost;BJWO;6;Bahnhofstr. 1;3197;Jänschwalde;Verkehrsverbund Berlin-Brandenburg GmbH für Brandenburg;VBB;nein;ja;51.8777295556089;14.5410490036011
Brandenburg;Frankfurt (Oder);3076;Kablow;BKAB;7;Bahnhofstr.;15712;Königs Wusterhausen;Verkehrsverbund Berlin-Brandenburg GmbH für Brandenburg;VBB;nein;ja;52.3000815680256;13.7211741598285
Berlin;Berlin;546;Berlin-Karow;BKAR;4;Bahnhofstr. 1;13125;Berlin;Verkehrsverbund Berlin-Brandenburg GmbH für Berlin;VBB;nein;ja;52.6151996100054;13.4695497741191
Berlin;Berlin;7723;Karl-Bonhoeffer-Nervenklinik;BKBO;6;Saalmannstraße;13403;Berlin;Verkehrsverbund Berlin-Brandenburg GmbH für Berlin;VBB;nein;ja;52.5780059743773;13.329119682312
Berlin;Berlin;547;Berlin-Kaulsdorf;BKD;4;Heinrich-Grüber-Str.1;12621;Berlin;Verkehrsverbund Berlin-Brandenburg GmbH für Berlin;VBB;nein;ja;52.5121278799621;13.5902263072072
Brandenburg;Cottbus;3220;Klasdorf;BKDF;6;Am Bahnhof 1;15837;Baruth (Mark);Verkehrsverbund Berlin-Brandenburg GmbH für Brandenburg;0;nein;ja;52.0216965323749;13.5431422869763
Brandenburg;Frankfurt (Oder);3162;Kerkwitz;BKE;6;An der Bahn 1;3172;Schenkendöbern;Verkehrsverbund Berlin-Brandenburg GmbH für Brandenburg;VBB;nein;ja;51.9096381649328;14.6275618022139
Brandenburg;Cottbus;3269;Klinge;BKG;6;Bahnhofsstr.57;3149;Wiesengrund OT Klinge;Verkehrsverbund Berlin-Brandenburg GmbH für Brandenburg;VBB;ja;ja;51.7435658677739;14.5183914899826
Berlin;Berlin;545;Berlin-Karlshorst;BKH;3;Treskowallee;10318;Berlin;Verkehrsverbund Berlin-Brandenburg GmbH für Berlin;0;nein;ja;52.4799735065689;13.5280742693921
Berlin;Berlin;3318;Köllnische Heide;BKHD;5;Krebsgang;12057;Berlin;Verkehrsverbund Berlin-Brandenburg GmbH für Berlin;0;nein;ja;52.4695976939093;13.4679132699967
Brandenburg;Frankfurt (Oder);3478;Küstrin-Kietz;BKI;6;Bahnhofsweg 3;15328;Küstrin-Kietz;Verkehrsverbund Berlin-Brandenburg GmbH für Brandenburg;VBB;nein;ja;52.5684946077232;14.6077512292301
Sachsen;Dresden;3305;Kodersdorf;BKOD;6;Am Bahnhof 1;2923;Kodersdorf;Zweckverband Verkehrsverbund Oberlausitz-Niederschlesien;ZVON;nein;ja;51.2599447456209;14.9158777713776
Brandenburg;Cottbus;3314;Kolkwitz Süd;BKOS;6;Bahnhofstr. 55;3099;Kolkwitz;Verkehrsverbund Berlin-Brandenburg GmbH für Brandenburg;VBB;nein;ja;51.7470400773692;14.2422080039978
Brandenburg;Cottbus;3313;Kolkwitz;BKOW;6;Bahnhofstr. 2;3099;Kolkwitz;Verkehrsverbund Berlin-Brandenburg GmbH für Brandenburg;VBB;nein;ja;51.7576781454198;14.2503542547158
Berlin;Berlin;548;Berlin-Köpenick;BKP;4;Bahnhofstr. 1;12555;Berlin;Verkehrsverbund Berlin-Brandenburg GmbH für Berlin;0;nein;ja;52.4585764124053;13.5815360968552
Brandenburg;Frankfurt (Oder);3409;Kremmen;BKRM;6;Am Bahnhof 1;16766;Kremmen;Verkehrsverbund Berlin-Brandenburg GmbH für Brandenburg;VBB;nein;ja;52.7530862766202;13.0402534551899
Brandenburg;Frankfurt (Oder);3460;Kummersdorf (b Storkow);BKUM;7;Bahnhofstr.;15859;Storkow (Mark);Verkehrsverbund Berlin-Brandenburg GmbH für Brandenburg;VBB;nein;ja;52.2749720363079;13.8740479946136
Brandenburg;Cottbus;3343;Königs Wusterhausen;BKW;4;Bahnhofsvorplatz 5;15711;Königs Wusterhausen;Verkehrsverbund Berlin-Brandenburg GmbH für Brandenburg;VBB;nein;ja;52.2965203074132;13.631322247375
Sachsen;Dresden;3599;Lauta (Niederlausitz);BLA;6;Karl-Liebknecht-Str. 56;2992;Lauta;Verkehrsbund Oberelbe GmbH;VVO;nein;ja;51.4471536603815;14.0931737422943
Berlin;Berlin;7144;Lankwitz;BLAK;6;Leonorenstr.60;12247;Berlin;Verkehrsverbund Berlin-Brandenburg GmbH für Berlin;VBB;nein;ja;52.4387336799763;13.3419929941495
Brandenburg;Cottbus;3802;Lübben (Spreewald);BLB;4;Bahnhofstr. 1;15907;Lübben;Verkehrsverbund Berlin-Brandenburg GmbH für Brandenburg;VBB;nein;ja;51.9399879114692;13.8765853643417
Brandenburg;Potsdam;3827;Luckenwalde;BLD;5;Bahnhofsplatz 7;14943;Luckenwalde;Verkehrsverbund Berlin-Brandenburg GmbH für Brandenburg;0;nein;ja;52.0905346231244;13.1602782011032
Brandenburg;Cottbus;3688;Leuthen (b Cottbus);BLE;6;Am Bahnhof 1;3116;Drebkau;Verkehrsverbund Berlin-Brandenburg GmbH für Brandenburg;VBB;nein;ja;51.6949052638367;14.2560047832403
Brandenburg;Berlin;3617;Lehnitz;BLEN;5;Birkenwerderweg   ;16515;Oranienburg;Verkehrsverbund Berlin-Brandenburg GmbH für Brandenburg;VBB;nein;ja;52.7413837869046;13.263159050661
Brandenburg;Potsdam;3835;Ludwigsfelde;BLF;4;Am Bahnhof 2;14974;Ludwigsfelde;Verkehrsverbund Berlin-Brandenburg GmbH für Brandenburg;VBB;nein;ja;52.2983613476683;13.2674006152138
Brandenburg;Cottbus;3573;Lauchhammer;BLH;6;Dimitroffstr. 37;1979;Lauchhammer;Verkehrsverbund Berlin-Brandenburg GmbH für Brandenburg;0;nein;ja;51.4745808473262;13.7430385700086
Berlin;Berlin;7720;Berlin-Lichterfelde Ost;BLIH;3;Lankwitzer Str.26;12209;Berlin;Verkehrsverbund Berlin-Brandenburg GmbH für Berlin;VBB;nein;ja;52.4297709311585;13.3286495475162
Berlin;Berlin;7730;Lichterfelde Süd;BLIS;5;Holtheimer Weg;12207;Berlin;Verkehrsverbund Berlin-Brandenburg GmbH für Berlin;VBB;nein;ja;52.4096790880467;13.3083421941151
Berlin;Berlin;550;Berlin-Lichterfelde West;BLIW;4;Hans-Sachs-Str.;12205;Berlin;Verkehrsverbund Berlin-Brandenburg GmbH für Berlin;VBB;nein;ja;52.4432938293808;13.2935732603073
Brandenburg;Cottbus;3805;Lübbenau (Spreewald);BLN;4;Bahnhofstr. 3a;3222;Lübbenau ;Verkehrsverbund Berlin-Brandenburg GmbH für Brandenburg;VBB;nein;ja;51.8620272484211;13.9613717794419
Brandenburg;Frankfurt (Oder);3732;Lindenberg (Mark);BLNG;7;Bahnhofstr.10a;15848;Tauche;Verkehrsverbund Berlin-Brandenburg GmbH für Brandenburg;VBB;nein;ja;52.2038122871166;14.1118024684945
Berlin;Berlin;549;Berlin-Lichtenberg;BLO;2;Weitlingstr. 22;10317;Berlin;Verkehrsverbund Berlin-Brandenburg GmbH für Berlin;VBB;ja;ja;52.5102399922505;13.4969615936279
Berlin;Berlin;3703;Lichtenrade;BLRD;5;Bahnhofstr.31;12307;Berlin;Verkehrsverbund Berlin-Brandenburg GmbH für Berlin;VBB;nein;ja;52.3870356678523;13.3965180601393
Berlin;Berlin;3511;Landsberger Allee;BLST;4;Landsberger Allee 117;10407;Berlin;Verkehrsverbund Berlin-Brandenburg GmbH für Berlin;VBB;nein;ja;52.5295419972862;13.4548115694542
Brandenburg;Frankfurt (Oder);3672;Letschin;BLTS;6;Bahnhofstr. 18;15324;Letschin;Verkehrsverbund Berlin-Brandenburg GmbH für Brandenburg;VBB;nein;ja;52.6327763829351;14.3477082252503
Brandenburg;Cottbus;3817;Lubolz;BLU;7;Bahnhofstr. 6a;15907;Lübben (Spreewald);Verkehrsverbund Berlin-Brandenburg GmbH für Brandenburg;VBB;nein;ja;51.962071638936;13.8217610120773
Sachsen;Leipzig;3502;Lampertswalde;BLW;6;Bahnhofstr. 44;1561;Lampertswalde;Verkehrsbund Oberelbe GmbH;VVO;nein;ja;51.3085339625494;13.6802577066919
Brandenburg;Berlin;3891;Mahlow;BMAH;5;Bahnhofstr.1;15831;Mahlow;Verkehrsverbund Berlin-Brandenburg GmbH für Brandenburg;VBB;nein;ja;52.3606296587775;13.4078446626663
Berlin;Berlin;553;Berlin-Marzahn;BMAR;4;Märkische Allee;12681;Berlin;Verkehrsverbund Berlin-Brandenburg GmbH für Berlin;VBB;nein;ja;52.5435234753833;13.5412780560296
Brandenburg;Frankfurt (Oder);4228;Müncheberg (Mark);BMB;6;Am Bahnhof 1;15374;Müncheberg (Mark);Verkehrsverbund Berlin-Brandenburg GmbH für Brandenburg;VBB;nein;ja;52.5244684301984;14.0997618198395
Berlin;Berlin;551;Berlin-Mahlsdorf;BMDF;4;Hönower Str. 83-85;12623;Berlin;Verkehrsverbund Berlin-Brandenburg GmbH für Berlin;VBB;nein;ja;52.5121165714486;13.6110604893078
Berlin;Berlin;4027;Mehrower Allee;BMEA;5;Märkische Allee 274;12683;Berlin;Verkehrsverbund Berlin-Brandenburg GmbH für Berlin;VBB;nein;ja;52.5575928020934;13.5535207986831
Berlin;Berlin;4092;Mexikoplatz;BMEX;4;Argentinische Allee;14163;Berlin;Verkehrsverbund Berlin-Brandenburg GmbH für Berlin;VBB;nein;ja;52.4367533285379;13.2332455087271
Berlin;Berlin;552;Berlin-Marienfelde;BMF;5;Marienfelder Allee;12277;Berlin;Verkehrsverbund Berlin-Brandenburg GmbH für Berlin;VBB;nein;ja;52.4241497806815;13.3746379613876
Brandenburg;Potsdam;4099;Michendorf;BMIP;4;Am Bahnhof 1;14552;Michendorf;Verkehrsverbund Berlin-Brandenburg GmbH für Brandenburg;VBB;nein;ja;52.3165397819276;13.0308902263641
Brandenburg;Berlin;4204;Mühlenbeck-Mönchmühle;BMM;6;Kastanienallee;16567;Mühlenbeck-Mönchmühle;Verkehrsverbund Berlin-Brandenburg GmbH für Brandenburg;VBB;nein;ja;52.6547343593534;13.386207818985
Berlin;Berlin;6840;Messe Nord / ICC (Witzleben);BMN;4;Neue Kantstr.16;14057;Berlin;Verkehrsverbund Berlin-Brandenburg GmbH für Berlin;VBB;nein;ja;52.5076877898203;13.2835257053375
Brandenburg;Potsdam;3986;Marquardt;BMQU;6;Fahrländer Str. 1A;14476;Potsdam;Verkehrsverbund Berlin-Brandenburg GmbH für Brandenburg;0;nein;ja;52.4586301670489;12.9718543768104
Brandenburg;Frankfurt (Oder);4224;Müllrose;BMR;6;Am Bahnhof 1;15299;Müllrose;Verkehrsverbund Berlin-Brandenburg GmbH für Brandenburg;VBB;nein;ja;52.2420483357056;14.4343474791163
Berlin;Berlin;7727;Messe Süd (Eichkamp);BMS;5;Messedamm;14055;Berlin;Verkehrsverbund Berlin-Brandenburg GmbH für Berlin;VBB;nein;ja;52.4986395035703;13.2701523297903
Brandenburg;Frankfurt (Oder);4142;Mixdorf;BMX;7;Am Bahnhof 1a;15299;Mixdorf;Verkehrsverbund Berlin-Brandenburg GmbH für Brandenburg;VBB;nein;ja;52.1978264040395;14.3946762945416
Brandenburg;Potsdam;4020;Medewitz (Mark);BMZ;6;Bahnhofstr. 6;14827;Medewitz ( Mark );Verkehrsverbund Berlin-Brandenburg GmbH für Brandenburg;0;nein;ja;52.0610906970461;12.3920524120331
Brandenburg;Cottbus;4074;Cottbus-Merzdorf;BMZD;6;Bahnhof-Merzdorf;3042;Cottbus;Verkehrsverbund Berlin-Brandenburg GmbH für Brandenburg;VBB;nein;ja;51.7689885120466;14.3666303157806
Brandenburg;Potsdam;4306;Nauen;BNAU;3;Am  Bahnhof ;14641;Nauen;Verkehrsverbund Berlin-Brandenburg GmbH für Brandenburg;VBB;nein;ja;52.6126226117261;12.8856923363425
Berlin;Berlin;532;Berlin-Nordbahnhof;BNB;4;Invalidenstr.131;10115;Berlin;Verkehrsverbund Berlin-Brandenburg GmbH für Berlin;VBB;nein;ja;52.5323703728889;13.3879297971725
Brandenburg;Frankfurt (Oder);4506;Niederlehme;BNDL;7;;15751;Niederlehme;Verkehrsverbund Berlin-Brandenburg GmbH für Brandenburg;VBB;nein;ja;52.3020317811175;13.652091944807
Brandenburg;Cottbus;4401;Neuhof (b Zossen);BNE;6;An der B96 4;15806;Zossen;Verkehrsverbund Berlin-Brandenburg GmbH für Brandenburg;VBB;nein;ja;52.1392039886651;13.4795808792114
Brandenburg;Berlin;4382;Neuenhagen (b Berlin);BNG;6;Eisenbahnstr. 10;15366;Neuenhagen ;Verkehrsverbund Berlin-Brandenburg GmbH für Brandenburg;VBB;nein;ja;52.5207704978574;13.7003922806322
Brandenburg;Cottbus;4397;Neuhausen (b Cottbus);BNH;6;Bahnhofstr.70;3058;Neuhausen ;Verkehrsverbund Berlin-Brandenburg GmbH für Brandenburg;VBB;nein;ja;51.6875065110146;14.4121581315994
Berlin;Berlin;4557;Nikolassee;BNIS;4;Hohenzollernplatz 7;14129;Berlin;Verkehrsverbund Berlin-Brandenburg GmbH für Berlin;0;nein;ja;52.432058061881;13.193855881691
Berlin;Berlin;554;Berlin-Neukölln;BNKN;4;Saalestr.1;12055;Berlin;Verkehrsverbund Berlin-Brandenburg GmbH für Berlin;VBB;nein;ja;52.469372333329;13.4428748488426
Brandenburg;Cottbus;4431;Neupetershain;BNP;6;Bahnhofstr. 18;3103;Neupetershain;Verkehrsverbund Berlin-Brandenburg GmbH für Brandenburg;0;nein;ja;51.6065328071373;14.1620823740959
Berlin;Berlin;4566;Nöldnerplatz;BNPL;5;Archibaldweg 22;10317;Berlin;Verkehrsverbund Berlin-Brandenburg GmbH für Berlin;VBB;nein;ja;52.5038505466124;13.4853629127347
Brandenburg;Frankfurt (Oder);4462;Neutrebbin;BNTB;6;Bahnhofstr. 45;15320;Neutrebbin;Verkehrsverbund Berlin-Brandenburg GmbH für Brandenburg;VBB;nein;ja;52.6761723641824;14.2376248240471
Brandenburg;Frankfurt (Oder);4468;Neuzelle;BNZ;5;Bahnhofstr. 39;15898;Neuzelle;Verkehrsverbund Berlin-Brandenburg GmbH für Brandenburg;VBB;nein;ja;52.0991989180385;14.6485984325409
Brandenburg;Frankfurt (Oder);4690;Obersdorf;BOB;7;Bahnhofstr. 3;15374;Müncheberg OT Obersdorf;Verkehrsverbund Berlin-Brandenburg GmbH für Brandenburg;VBB;nein;ja;52.5368560190258;14.1670560836792
Brandenburg;Cottbus;4726;Oderin;BOD;6;Am Bahnhof 1;15757;Halbe;Verkehrsverbund Berlin-Brandenburg GmbH für Brandenburg;VBB;nein;ja;52.0748254063512;13.726971745491
Brandenburg;Frankfurt (Oder);4729;Oegeln;BOEG;7;Bahnhofstr. 30;15848;Beeskow;Verkehrsverbund Berlin-Brandenburg GmbH für Brandenburg;VBB;nein;ja;52.1727665554647;14.2706913122538
Berlin;Berlin;4809;Ostkreuz;BOK;3;Sonntagstr.37;10245;Berlin;Verkehrsverbund Berlin-Brandenburg GmbH für Berlin;VBB;nein;ja;52.5031219554461;13.4691345691681
Berlin;Berlin;7731;Olympiastadion;BOLS;3;Flatowallee/Trakehner Allee;14053;Berlin;Verkehrsverbund Berlin-Brandenburg GmbH für Berlin;VBB;nein;ja;52.511383594499;13.2427172581876
Brandenburg;Frankfurt (Oder);4777;Oranienburg;BOR;3;Bahnhofsplatz 1;16515;Oranienburg;Verkehrsverbund Berlin-Brandenburg GmbH für Brandenburg;VBB;nein;ja;52.7539835580862;13.2492971420288
Berlin;Berlin;4778;Oranienburger Straße;BORS;4;Oranienburger Str. 35;10117;Berlin;Verkehrsverbund Berlin-Brandenburg GmbH für Berlin;VBB;nein;ja;52.5251758945791;13.3928232121954
Brandenburg;Cottbus;4781;Ortrand;BORT;6;Lingenthal-Platz 1;1990;Ortrand;Verkehrsverbund Berlin-Brandenburg GmbH für Brandenburg;0;nein;ja;51.373365454442;13.7645673751831
Berlin;Berlin;4692;Oberspree;BOSP;6;Bruno-Bürgel-Weg;12439;Berlin;Verkehrsverbund Berlin-Brandenburg GmbH für Berlin;VBB;nein;ja;52.452398180482;13.5379278659821
Berlin;Berlin;7762;Osdorferstraße;BOSS;5;Osdorfer Str.124;12207;Berlin;Verkehrsverbund Berlin-Brandenburg GmbH für Berlin;VBB;nein;ja;52.4188851277863;13.3142347380802
Brandenburg;Cottbus;4963;Plessa;BP;6;Bahnhofstr.;4928;Plessa;Verkehrsverbund Berlin-Brandenburg GmbH für Brandenburg;0;nein;ja;51.4709257587137;13.6165809631348
Brandenburg;Cottbus;4861;Kunersdorf;BPA;6;Am Bahnhof 15;3099;Kolkwitz;Verkehrsverbund Berlin-Brandenburg GmbH für Brandenburg;VBB;nein;ja;51.7685967878237;14.1885423660278
Brandenburg;Potsdam;5012;Potsdam Hbf;BPD;2;Friedrich-Engels-Str. 99;14473;Potsdam;Verkehrsverbund Berlin-Brandenburg GmbH für Brandenburg;VBB;nein;ja;52.3915166073585;13.06725025177
Brandenburg;Potsdam;5010;Potsdam Charlottenhof;BPDC;4;Zeppelinstr. 146;14471;Potsdam;Verkehrsverbund Berlin-Brandenburg GmbH für Brandenburg;VBB;nein;ja;52.3928053362819;13.0366194248199
Brandenburg;Potsdam;5011;Potsdam Pirschheide;BPDP;6;Zum Bahnhof Pirschheide  ;14471;Potsdam;Verkehrsverbund Berlin-Brandenburg GmbH für Brandenburg;VBB;nein;ja;52.3728318134325;13.011349439621
Brandenburg;Berlin;4905;Petershagen Nord;BPEN;6;Lessingstr.5;15370;Petershagen;Verkehrsverbund Berlin-Brandenburg GmbH für Brandenburg;VBB;nein;ja;52.5288502773189;13.7889933586121
Berlin;Berlin;4854;Pankow-Heinersdorf;BPHD;5;Prenzlauer Promenade;13186;Berlin;Verkehrsverbund Berlin-Brandenburg GmbH für Berlin;VBB;nein;ja;52.577709924442;13.4291117546384
Berlin;Berlin;7732;Pichelsberg;BPIC;5;Schirwindter Allee;14055;Berlin;Verkehrsverbund Berlin-Brandenburg GmbH für Berlin;VBB;nein;ja;52.5102039315973;13.2275805993058
Brandenburg;Frankfurt (Oder);4934;Pillgram;BPIL;6;Am Bahnhof;15236;Jacobsdorf;Verkehrsverbund Berlin-Brandenburg GmbH für Brandenburg;VBB;nein;ja;52.3368908277623;14.3984124480519
Berlin;Berlin;555;Berlin-Pankow;BPKR;5;Florastr. 52;13187;Berlin;Verkehrsverbund Berlin-Brandenburg GmbH für Berlin;VBB;nein;ja;52.5663835995725;13.4106558561325
Berlin;Berlin;5026;Prenzlauer Allee;BPLA;4;Prenzlauer Allee 180;10409;Berlin;Verkehrsverbund Berlin-Brandenburg GmbH für Berlin;VBB;nein;ja;52.5447905249989;13.4259358902646
Brandenburg;Cottbus;4893;Peitz Ost;BPO;6;Alte Bahnhofstr.69;3185;Peitz;Verkehrsverbund Berlin-Brandenburg GmbH für Brandenburg;0;nein;ja;51.8440316412831;14.4493398070335
Berlin;Berlin;4976;Poelchaustraße;BPOE;5;Poelchaustr./Märkische Allee;12681;Berlin;Verkehrsverbund Berlin-Brandenburg GmbH für Berlin;VBB;nein;ja;52.5356427426396;13.5354718565941
Berlin;Berlin;5016;Berlin Potsdamer Platz;BPOF;2;Potsdamer Platz;10785;Berlin;Verkehrsverbund Berlin-Brandenburg GmbH für Berlin;VBB;nein;ja;52.5095071060745;13.3760999864148
Brandenburg;Potsdam;5038;Priort;BPOT;6;Str. am Bahnhof 1;14641;Wustermark;Verkehrsverbund Berlin-Brandenburg GmbH für Brandenburg;VBB;nein;ja;52.5164493745414;12.9714417457581
Berlin;Berlin;5036;Priesterweg;BPRS;4;Priesterweg;12157;Berlin;Verkehrsverbund Berlin-Brandenburg GmbH für Berlin;VBB;nein;ja;52.4599363882735;13.3560892293874
Brandenburg;Cottbus;5052;Prösen Ost;BPW;6;Großenhainer Str.56a;4932;Röderland;Verkehrsverbund Berlin-Brandenburg GmbH für Brandenburg;0;nein;ja;51.4258394143447;13.5008546885322
Berlin;Berlin;4950;Plänterwald;BPWA;4;Erich-Lodemannstr. 1;12435;Berlin;Verkehrsverbund Berlin-Brandenburg GmbH für Berlin;VBB;nein;ja;52.4785340975328;13.4732204675674
Brandenburg;Cottbus;5082;Raddusch;BRAD;6;Radduscher Bahnhofstr.12;3226;Vetschau/Spreewald;Verkehrsverbund Berlin-Brandenburg GmbH für Brandenburg;VBB;nein;ja;51.8159720865066;14.0325299722958
Berlin;Berlin;592;Betriebsbahnhof Berlin-Rummelsburg;BRB;4;Hönower Weg 2;10317;Berlin;Verkehrsverbund Berlin-Brandenburg GmbH für Berlin;VBB;nein;ja;52.4937034786013;13.4980344772339
Brandenburg;Potsdam;5014;Potsdam-Rehbrücke;BRC;6;Arthur-Scheunert-Allee;14558;Nuthetal;Verkehrsverbund Berlin-Brandenburg GmbH für Brandenburg;VBB;nein;ja;52.3582588851854;13.0980898204603
Berlin;Berlin;5100;Rahnsdorf;BRD;5;Alter Fischerweg;12589;Berlin;Verkehrsverbund Berlin-Brandenburg GmbH für Berlin;VBB;nein;ja;52.4515634405457;13.6899375915527
Brandenburg;Frankfurt (Oder);5178;Rehfelde;BRE;6;Bahnhofstr. 23a;15345;Rehfelde ;Verkehrsverbund Berlin-Brandenburg GmbH für Brandenburg;VBB;nein;ja;52.528458654685;13.9226791262627
Brandenburg;Berlin;5340;Röntgental;BRGT;4;Kastanienallee;16341;Panketal;Verkehrsverbund Berlin-Brandenburg GmbH für Brandenburg;VBB;nein;ja;52.648691586472;13.5135169816293
Berlin;Berlin;556;Berlin-Rummelsburg;BRH;4;Nöldnerstr. 20;10317;Berlin;Verkehrsverbund Berlin-Brandenburg GmbH für Berlin;VBB;nein;ja;52.5012068448631;13.4786727056155
Sachsen;Dresden;5282;Rietschen;BRI;6;Bahnhofstraße 3;2956;Rietschen;Zweckverband Verkehrsverbund Oberlausitz-Niederschlesien;ZVON;nein;ja;51.3987800125794;14.7839731157724
Brandenburg;Cottbus;5411;Rückersdorf;BRO;7;Am Bahnhof;3238;Rückersdorf;Verkehrsverbund Berlin-Brandenburg GmbH für Brandenburg;0;nein;ja;51.5671676697677;13.5743315612672
Brandenburg;Cottbus;5118;Rangsdorf;BRSF;5;Am Bahnhof1;15834;Rangsdorf;Verkehrsverbund Berlin-Brandenburg GmbH für Brandenburg;VBB;nein;ja;52.2946648793289;13.4306308548572
Berlin;Berlin;5129;Rathaus Steglitz;BRST;4;Berlinickestraße 16;12165;Berlin;Verkehrsverbund Berlin-Brandenburg GmbH für Berlin;0;nein;ja;52.4555350943851;13.3224920431773
Brandenburg;Cottbus;5422;Ruhland;BRU;5;Am Bahnhof;1945;Ruhland;Verkehrsverbund Berlin-Brandenburg GmbH für Brandenburg;VBB;nein;ja;51.4552690119752;13.8699425517777
Berlin;Berlin;5122;Raoul-Wallenberg-Straße;BRW;5;Märkische Allee 230;12681;Berlin;Verkehrsverbund Berlin-Brandenburg GmbH für Berlin;VBB;nein;ja;52.5507386039043;13.5475766658783
Brandenburg;Frankfurt (Oder);5466;Sachsenhausen (Nordb);BSAH;6;Am Bahndamm 2;16515;Oranienburg/Sachsenhausen;Verkehrsverbund Berlin-Brandenburg GmbH für Brandenburg;VBB;nein;ja;52.772380231511;13.2517317989294
Berlin;Berlin;5665;Schönhauser Allee;BSAL;4;Schönhauser Allee 75;10439;Berlin;Verkehrsverbund Berlin-Brandenburg GmbH für Berlin;0;nein;ja;52.5492006002096;13.4154331684113
Brandenburg;Potsdam;5459;Saarmund;BSAM;6;Marzahner Chaussee 1;14558;Nuthetal;Verkehrsverbund Berlin-Brandenburg GmbH für Brandenburg;VBB;nein;ja;52.3236177269576;13.1392513850995
Berlin;Berlin;5523;Savignyplatz;BSAP;4;Bleibtreustr.49;10623;Berlin;Verkehrsverbund Berlin-Brandenburg GmbH für Berlin;VBB;nein;ja;52.5050940470861;13.3189132256813
Brandenburg;Frankfurt (Oder);5626;Schneeberg (Mark);BSB;7;Bahnhofstr. 7;15848;Beeskow;Verkehrsverbund Berlin-Brandenburg GmbH für Brandenburg;0;nein;ja;52.1644609439707;14.3304634094238
Brandenburg;Cottbus;5641;Schönborn (b Doberlug);BSBD;6;Bahnhofstr. 1-8;1561;Schönborn ;Verkehrsverbund Berlin-Brandenburg GmbH für Brandenburg;0;nein;ja;51.6019926967385;13.4680259227753
Berlin;Berlin;5563;Schichauweg;BSC;5;Schichauweg 1;12307;Berlin;Verkehrsverbund Berlin-Brandenburg GmbH für Berlin;VBB;nein;ja;52.3985733531485;13.3894457600334
Berlin;Berlin;595;Betriebsbahnhof Berlin-Schöneweide;BSCF;4;Adlergestell 103;12439;Berlin;Verkehrsverbund Berlin-Brandenburg GmbH für Berlin;VBB;nein;ja;52.4469809534881;13.5234726742113
Brandenburg;Cottbus;5675;Schönwalde (Spreewald);BSCH;6;Bahnhofstr. 58;15910;Schönwalde ;Verkehrsverbund Berlin-Brandenburg GmbH für Brandenburg;VBB;nein;ja;51.9914559558221;13.7766812219741
Berlin;Berlin;7146;Südende;BSDE;5;Steglitzer Damm;12247;Berlin;Verkehrsverbund Berlin-Brandenburg GmbH für Berlin;VBB;nein;ja;52.4482548378637;13.3536887168884
Berlin;Berlin;6123;Sundgauer Straße;BSDG;5;Sundgauer Straße 107;14169;Berlin;Verkehrsverbund Berlin-Brandenburg GmbH für Berlin;VBB;nein;ja;52.4364635828074;13.2741728895589
Brandenburg;Potsdam;5775;Seddin;BSE;5;Kunersdorfer Str. 1;14554;Seddin;Verkehrsverbund Berlin-Brandenburg GmbH für Brandenburg;VBB;nein;ja;52.29154975595;12.9845012937273
Brandenburg;Frankfurt (Oder);5783;Seefeld (Mark);BSEE;6;Bahnhofstr. 12b;16356;Werneuchen-Seefeld+Löhme;Verkehrsverbund Berlin-Brandenburg GmbH für Brandenburg;VBB;nein;ja;52.618248854178;13.6757808923721
Brandenburg;Cottbus;5776;Sedlitz Ost;BSEO;6;Cottbusser Str.;1968;Senftenberg;Verkehrsverbund Berlin-Brandenburg GmbH für Brandenburg;0;nein;ja;51.5534807000641;14.0553323267824
Brandenburg;Potsdam;7743;Seegefeld;BSFD;5;Seegefelder Str. 144;14612;Falkensee;Verkehrsverbund Berlin-Brandenburg GmbH für Brandenburg;VBB;nein;ja;52.5523901717466;13.1172153353691
Sachsen;Dresden;5583;Schleife;BSFE;6;Bahnhofstr. 77;2959;Schleife;Zweckverband Verkehrsverbund Oberlausitz-Niederschlesien;ZVON;nein;ja;51.5355431261859;14.5310011023855
Brandenburg;Berlin;5659;Schönfließ;BSFL;6;Summter Weg;16567;Mühlenbecker Land;Verkehrsverbund Berlin-Brandenburg GmbH für Brandenburg;VBB;nein;ja;52.6648851450592;13.339410740076
Berlin;Berlin;558;Schöneberg;BSGR;4;Dominicusstr.41;10827;Berlin;Verkehrsverbund Berlin-Brandenburg GmbH für Berlin;VBB;nein;ja;52.4792988023236;13.3518282867811
Brandenburg;Frankfurt (Oder);5546;Wendisch-Rietz;BSH;6;Am Bahnhof 1;15864;Wendich-Rietz;Verkehrsverbund Berlin-Brandenburg GmbH für Brandenburg;VBB;nein;ja;52.206691296513;14.0095555754465
Brandenburg;Frankfurt (Oder);5715;Schwante;BSHE;7;Bahnhofstraße 2;16727;Oberkrämer - Schwante;Verkehrsverbund Berlin-Brandenburg GmbH für Brandenburg;VBB;nein;ja;52.7347775056015;13.0915740029566
Brandenburg;Potsdam;5767;Caputh-Schwielowsee;BSIS;6;Bahnstr.1;14542;Caputh-Schwielowsee;Verkehrsverbund Berlin-Brandenburg GmbH für Brandenburg;VBB;nein;ja;52.3409799806288;12.9805276446676
Sachsen;Dresden;5735;Schwarzkollm;BSKL;6;Sandwäsche 1;2977;Hoyerswerda-Schwarzkollm;Verkehrsbund Oberelbe GmbH;VVO;nein;ja;51.4431665877493;14.1336563802275
Berlin;Berlin;4859;Berlin Südkreuz;BSKR;1;General-Pape-Straße 1;12101;Berlin;Verkehrsverbund Berlin-Brandenburg GmbH für Berlin;VBB;ja;ja;52.4757753671688;13.3654367923737
Brandenburg;Frankfurt (Oder);5793;Seelow (Mark);BSLO;6;Am Bahnhof 3;15306;Seelow (Mark);Verkehrsverbund Berlin-Brandenburg GmbH für Brandenburg;VBB;nein;ja;52.5381753034832;14.3944877386093
Berlin;Berlin;557;Berlin-Schlachtensee;BSLS;4;Am Schlachtensee/ Altvaterstraße;14129;Berlin;Verkehrsverbund Berlin-Brandenburg GmbH für Berlin;VBB;nein;ja;52.440246203709;13.215765011938
Brandenburg;Cottbus;5823;Senftenberg;BSN;5;Gütergahnhofstr. 4;1968;Senftenberg;Verkehrsverbund Berlin-Brandenburg GmbH für Brandenburg;0;nein;ja;51.5270932126102;14.0037471055985
Berlin;Berlin;560;Berlin-Schönholz;BSNL;4;Provinzstr.60;13158;Berlin;Verkehrsverbund Berlin-Brandenburg GmbH für Berlin;VBB;nein;ja;52.5714916266373;13.3809662988463
Brandenburg;Cottbus;5634;Luckaitztal;BSNZ;6;Am Bahnhof;3229;Luckaitztal;Verkehrsverbund Berlin-Brandenburg GmbH für Brandenburg;0;nein;ja;51.6849689523861;14.001739025116
Berlin;Berlin;7736;Sonnenallee;BSO;4;Saalestr.50;12055;Berlin;Verkehrsverbund Berlin-Brandenburg GmbH für Berlin;VBB;nein;ja;52.4729734396964;13.4556931257248
Brandenburg;Frankfurt (Oder);5660;Schönfließ Dorf;BSOE;6;Bahnhofstr. 3;15326;Lebus;Verkehrsverbund Berlin-Brandenburg GmbH für Brandenburg;VBB;nein;ja;52.437041061612;14.472676057082
Brandenburg;Cottbus;5930;Spremberg;BSP;7;Grazer Str.20;3130;Spremberg;Verkehrsverbund Berlin-Brandenburg GmbH für Brandenburg;0;nein;ja;51.5747911386926;14.3975821748173
Berlin;Berlin;561;Berlin-Spandau;BSPD;2;Seegefelder Str. 1;13597;Berlin;Verkehrsverbund Berlin-Brandenburg GmbH für Berlin;VBB;ja;ja;52.5347687930676;13.195658326149
Berlin;Berlin;563;Berlin-Spindlersfeld;BSPF;5;Ernst-Grube-Straße 2;12555;Berlin;Verkehrsverbund Berlin-Brandenburg GmbH für Berlin;VBB;nein;ja;52.4468560175482;13.5616081953049
Berlin;Berlin;5934;Springpfuhl;BSPH;4;Allee der Kosmonauten/Märkische All;12681;Berlin;Verkehrsverbund Berlin-Brandenburg GmbH für Berlin;VBB;nein;ja;52.5270018617673;13.5364736819136
Brandenburg;Cottbus;5733;Schwarzheide Ost;BSRO;6;Naundorfer Str. ;1987;Schwarzheide;Verkehrsverbund Berlin-Brandenburg GmbH für Brandenburg;0;nein;ja;51.4736082088932;13.8907510578611
Berlin;Berlin;7761;Stresow;BSRW;5;Freiheit Nr. 5;13597;Berlin;Verkehrsverbund Berlin-Brandenburg GmbH für Berlin;VBB;nein;ja;52.5319361523728;13.2093369090762
Brandenburg;Frankfurt (Oder);6058;Strausberg;BST;4;Bahnhofstr. 26;15344;Strausberg;Verkehrsverbund Berlin-Brandenburg GmbH für Brandenburg;VBB;nein;ja;52.5322006837782;13.8335716724396
Berlin;Potsdam;564;Berlin-Staaken;BSTA;6;Nennhauser Damm  1;13591;Berlin;Verkehrsverbund Berlin-Brandenburg GmbH für Berlin;VBB;nein;ja;52.5377087185399;13.1415152549744
Brandenburg;Potsdam;8240;Ludwigsfelde-Struveshof;BSTH;6;Landstr L79/ Potsdamerstr;14974;Ludwigsfelde;Verkehrsverbund Berlin-Brandenburg GmbH für Brandenburg;;nein;nein;52.3171366034566;13.2320022583008
Brandenburg;Berlin;6059;Strausberg Nord;BSTN;6;Prötzeler Chaussee;15344;Strausberg;Verkehrsverbund Berlin-Brandenburg GmbH für Brandenburg;VBB;nein;ja;52.5902773734713;13.9085227164865
Berlin;Berlin;6042;Storkower Straße;BSTO;4;Storkower Str. 207;10369;Berlin;Verkehrsverbund Berlin-Brandenburg GmbH für Berlin;VBB;nein;ja;52.523733178021;13.4648550075033
